# 2021 04 12 13:34:52
#
# Version: 10 Manufacturer: HUAWEI Make: ELE-AL00
#
-62167219199998,$GPGGA,053453.82,3101.965360,N,12127.010560,E,0,,0.0,0.0,M,,M,,*74

-62167219199998,$GNGSA,A,1,,,,,,,,,,,,,0.0,0.0,0.0*2E

-62167219199998,$GPGSA,A,1,,,,,,,,,,,,,0.0,0.0,0.0,1*2D

-62167219199998,$GPGSA,A,1,,,,,,,,,,,,,0.0,0.0,0.0,8*24

-62167219199998,$GLGSA,A,1,,,,,,,,,,,,,0.0,0.0,0.0,1*31

-62167219199998,$BDGSA,A,1,,,,,,,,,,,,,0.0,0.0,0.0,1*3C

-62167219199998,$BDGSA,A,1,,,,,,,,,,,,,0.0,0.0,0.0,7*3A

-62167219199998,$GAGSA,A,1,,,,,,,,,,,,,0.0,0.0,0.0,7*3A

-62167219199998,$GAGSA,A,1,,,,,,,,,,,,,0.0,0.0,0.0,1*3C

-62167219199998,$QZGSA,A,1,,,,,,,,,,,,,0.0,0.0,0.0,1*31

-62167219199998,$QZGSA,A,1,,,,,,,,,,,,,0.0,0.0,0.0,8*38

-62167219199998,$GPGSV,3,1,12,01,52,178,,07,64,263,,08,54,023,,09,06,218,22,1*63

-62167219199998,$GPGSV,3,2,12,14,12,303,,16,15,100,,17,05,248,,21,72,127,,1*6D

-62167219199998,$GPGSV,3,3,12,22,11,147,29,27,22,049,,28,08,301,,30,34,309,,1*68

-62167219199998,$GLGSV,2,1,05,77,47,126,,78,66,355,,79,16,327,,81,44,229,,1*7B

-62167219199998,$GLGSV,2,2,05,88,72,357,,1*49

-62167219199998,$BDGSV,7,1,25,201,46,139,,202,34,234,,203,51,200,,204,35,122,,1*7A

-62167219199998,$BDGSV,7,2,25,205,13,254,,206,15,195,,207,69,015,,208,40,172,,1*78

-62167219199998,$BDGSV,7,3,25,209,27,220,,210,55,321,,213,20,189,,216,17,202,,1*7A

-62167219199998,$BDGSV,7,4,25,227,66,022,,228,15,044,,230,51,247,,236,29,317,,1*77

-62167219199998,$BDGSV,7,5,25,237,37,142,,238,05,,,239,05,,,240,05,,,1*47

-62167219199998,$BDGSV,7,6,25,241,05,,,242,05,,,243,05,,,244,05,,,1*77

-62167219199998,$BDGSV,7,7,25,245,05,,,1*44

-62167219199998,$QZGSV,1,1,03,193,06,158,,194,68,114,,195,74,069,,1*7D

-62167219199998,$GAGSV,2,1,06,102,57,336,,111,37,039,,124,07,119,,125,57,094,,7*7E

-62167219199998,$GAGSV,2,2,06,130,11,311,,136,81,139,,7*72

-62167219199998,$GPRMC,053453.82,V,3101.965360,N,12127.010560,E,000.0,000.0,120421,,E,N*00

-62167219199997,$GPGGA,053455.62,3101.965360,N,12127.010560,E,0,,0.0,0.0,M,,M,,*7C

-62167219199997,$GNGSA,A,1,,,,,,,,,,,,,0.0,0.0,0.0*2E

-62167219199997,$GPGSA,A,1,,,,,,,,,,,,,0.0,0.0,0.0,1*2D

-62167219199997,$GPGSA,A,1,,,,,,,,,,,,,0.0,0.0,0.0,8*24

-62167219199997,$GLGSA,A,1,,,,,,,,,,,,,0.0,0.0,0.0,1*31

-62167219199997,$BDGSA,A,1,,,,,,,,,,,,,0.0,0.0,0.0,1*3C

-62167219199997,$BDGSA,A,1,,,,,,,,,,,,,0.0,0.0,0.0,7*3A

-62167219199997,$GAGSA,A,1,,,,,,,,,,,,,0.0,0.0,0.0,7*3A

-62167219199997,$GAGSA,A,1,,,,,,,,,,,,,0.0,0.0,0.0,1*3C

-62167219199997,$QZGSA,A,1,,,,,,,,,,,,,0.0,0.0,0.0,1*31

-62167219199997,$QZGSA,A,1,,,,,,,,,,,,,0.0,0.0,0.0,8*38

-62167219199997,$GPGSV,3,1,12,01,52,178,,07,64,263,,08,54,023,,09,06,218,22,1*63

-62167219199997,$GPGSV,3,2,12,14,12,303,,16,15,100,,17,05,248,,21,72,127,,1*6D

-62167219199997,$GPGSV,3,3,12,22,11,147,28,27,22,049,,28,08,301,,30,34,309,,1*69

-62167219199997,$GLGSV,2,1,05,77,47,126,,78,66,355,,79,16,327,,81,44,229,,1*7B

-62167219199997,$GLGSV,2,2,05,88,72,357,,1*49

-62167219199997,$BDGSV,7,1,25,201,46,139,,202,34,234,,203,51,200,,204,35,122,,1*7A

-62167219199997,$BDGSV,7,2,25,205,13,254,,206,15,195,,207,69,015,,208,40,172,,1*78

-62167219199997,$BDGSV,7,3,25,209,27,220,,210,55,321,,213,20,189,,216,17,202,,1*7A

-62167219199997,$BDGSV,7,4,25,227,66,022,,228,15,044,,230,51,247,,236,29,317,,1*77

-62167219199997,$BDGSV,7,5,25,237,37,142,,238,05,,,239,05,,,240,05,,,1*47

-62167219199997,$BDGSV,7,6,25,241,05,,,242,05,,,243,05,,,244,05,,,1*77

-62167219199997,$BDGSV,7,7,25,245,05,,,1*44

-62167219199997,$QZGSV,1,1,03,193,06,158,,194,68,114,,195,74,068,,1*7C

-62167219199997,$GAGSV,2,1,06,102,57,336,,111,37,039,,124,07,119,,125,57,094,,7*7E

-62167219199997,$GAGSV,2,2,06,130,11,311,,136,81,139,,7*72

-62167219199997,$GPRMC,053455.62,V,3101.965360,N,12127.010560,E,000.0,000.0,120421,,E,N*08

-62167219199997,$GPGGA,053456.62,3101.965360,N,12127.010560,E,0,,0.0,0.0,M,,M,,*7F

-62167219199997,$GNGSA,A,1,,,,,,,,,,,,,0.0,0.0,0.0*2E

-62167219199997,$GPGSA,A,1,,,,,,,,,,,,,0.0,0.0,0.0,1*2D

-62167219199997,$GPGSA,A,1,,,,,,,,,,,,,0.0,0.0,0.0,8*24

-62167219199997,$GLGSA,A,1,,,,,,,,,,,,,0.0,0.0,0.0,1*31

-62167219199997,$BDGSA,A,1,,,,,,,,,,,,,0.0,0.0,0.0,1*3C

-62167219199997,$BDGSA,A,1,,,,,,,,,,,,,0.0,0.0,0.0,7*3A

-62167219199997,$GAGSA,A,1,,,,,,,,,,,,,0.0,0.0,0.0,7*3A

-62167219199997,$GAGSA,A,1,,,,,,,,,,,,,0.0,0.0,0.0,1*3C

-62167219199997,$QZGSA,A,1,,,,,,,,,,,,,0.0,0.0,0.0,1*31

-62167219199997,$QZGSA,A,1,,,,,,,,,,,,,0.0,0.0,0.0,8*38

-62167219199997,$GPGSV,3,1,12,01,52,178,22,07,64,263,,08,54,023,,09,06,218,21,1*60

-62167219199997,$GPGSV,3,2,12,14,12,303,,16,15,100,,17,05,248,,21,72,127,,1*6D

-62167219199997,$GPGSV,3,3,12,22,11,147,28,27,22,049,,28,08,301,,30,34,309,,1*69

-62167219199997,$GLGSV,2,1,05,77,47,126,,78,66,355,,79,16,327,,81,44,229,,1*7B

-62167219199997,$GLGSV,2,2,05,88,72,357,,1*49

-62167219199997,$BDGSV,7,1,25,201,46,139,,202,34,234,,203,51,200,,204,35,122,,1*7A

-62167219199997,$BDGSV,7,2,25,205,13,254,,206,15,195,,207,69,015,,208,40,172,,1*78

-62167219199997,$BDGSV,7,3,25,209,27,220,,210,55,321,,213,20,189,,216,17,202,,1*7A

-62167219199997,$BDGSV,7,4,25,227,66,022,,228,15,044,,230,51,247,,236,29,317,,1*77

-62167219199997,$BDGSV,7,5,25,237,37,142,,238,05,,,239,05,,,240,05,,,1*47

-62167219199997,$BDGSV,7,6,25,241,05,,,242,05,,,243,05,,,244,05,,,1*77

-62167219199997,$BDGSV,7,7,25,245,05,,,1*44

-62167219199997,$QZGSV,1,1,03,193,06,158,,194,68,114,,195,74,068,,1*7C

-62167219199997,$GAGSV,2,1,06,102,57,336,,111,37,039,,124,07,119,,125,57,094,,7*7E

-62167219199997,$GAGSV,2,2,06,130,11,311,,136,81,138,,7*73

-62167219199997,$GPRMC,053456.62,V,3101.965360,N,12127.010560,E,000.0,000.0,120421,,E,N*0B

-62167219199996,$GPGGA,053457.62,3101.965360,N,12127.010560,E,0,,0.0,0.0,M,,M,,*7E

-62167219199996,$GNGSA,A,1,,,,,,,,,,,,,0.0,0.0,0.0*2E

-62167219199996,$GPGSA,A,1,,,,,,,,,,,,,0.0,0.0,0.0,1*2D

-62167219199996,$GPGSA,A,1,,,,,,,,,,,,,0.0,0.0,0.0,8*24

-62167219199996,$GLGSA,A,1,,,,,,,,,,,,,0.0,0.0,0.0,1*31

-62167219199996,$BDGSA,A,1,,,,,,,,,,,,,0.0,0.0,0.0,1*3C

-62167219199996,$BDGSA,A,1,,,,,,,,,,,,,0.0,0.0,0.0,7*3A

-62167219199996,$GAGSA,A,1,,,,,,,,,,,,,0.0,0.0,0.0,7*3A

-62167219199996,$GAGSA,A,1,,,,,,,,,,,,,0.0,0.0,0.0,1*3C

-62167219199996,$QZGSA,A,1,,,,,,,,,,,,,0.0,0.0,0.0,1*31

-62167219199996,$QZGSA,A,1,,,,,,,,,,,,,0.0,0.0,0.0,8*38

-62167219199996,$GPGSV,3,1,12,01,52,178,16,07,64,263,,08,54,023,,09,06,218,21,1*67

-62167219199996,$GPGSV,3,2,12,14,12,303,,16,15,100,,17,05,248,,21,72,127,,1*6D

-62167219199996,$GPGSV,3,3,12,22,11,147,29,27,22,049,,28,08,301,,30,34,309,,1*68

-62167219199996,$GLGSV,2,1,05,77,47,126,,78,66,355,,79,16,327,,81,44,229,,1*7B

-62167219199996,$GLGSV,2,2,05,88,72,357,,1*49

-62167219199996,$BDGSV,7,1,25,201,46,139,,202,34,234,,203,51,200,,204,35,122,,1*7A

-62167219199996,$BDGSV,7,2,25,205,13,254,,206,15,195,,207,69,015,,208,40,172,,1*78

-62167219199996,$BDGSV,7,3,25,209,27,220,,210,55,321,,213,20,189,,216,17,202,,1*7A

-62167219199996,$BDGSV,7,4,25,227,66,022,,228,15,044,,230,51,247,,236,29,317,,1*77

-62167219199996,$BDGSV,7,5,25,237,37,142,,238,05,,,239,05,,,240,05,,,1*47

-62167219199996,$BDGSV,7,6,25,241,05,,,242,05,,,243,05,,,244,05,,,1*77

-62167219199996,$BDGSV,7,7,25,245,05,,,1*44

-62167219199996,$QZGSV,1,1,03,193,06,158,,194,68,114,,195,74,068,,1*7C

-62167219199996,$GAGSV,2,1,06,102,57,336,,111,37,039,,124,07,119,,125,57,094,,7*7E

-62167219199996,$GAGSV,2,2,06,130,11,311,,136,81,138,,7*73

-62167219199996,$GPRMC,053457.62,V,3101.965360,N,12127.010560,E,000.0,000.0,120421,,E,N*0A

-62167219199997,$GPGGA,053458.62,3101.965360,N,12127.010560,E,0,,0.0,0.0,M,,M,,*71

-62167219199997,$GNGSA,A,1,,,,,,,,,,,,,0.0,0.0,0.0*2E

-62167219199997,$GPGSA,A,1,,,,,,,,,,,,,0.0,0.0,0.0,1*2D

-62167219199997,$GPGSA,A,1,,,,,,,,,,,,,0.0,0.0,0.0,8*24

-62167219199997,$GLGSA,A,1,,,,,,,,,,,,,0.0,0.0,0.0,1*31

-62167219199997,$BDGSA,A,1,,,,,,,,,,,,,0.0,0.0,0.0,1*3C

-62167219199997,$BDGSA,A,1,,,,,,,,,,,,,0.0,0.0,0.0,7*3A

-62167219199997,$GAGSA,A,1,,,,,,,,,,,,,0.0,0.0,0.0,7*3A

-62167219199997,$GAGSA,A,1,,,,,,,,,,,,,0.0,0.0,0.0,1*3C

-62167219199997,$QZGSA,A,1,,,,,,,,,,,,,0.0,0.0,0.0,1*31

-62167219199997,$QZGSA,A,1,,,,,,,,,,,,,0.0,0.0,0.0,8*38

-62167219199997,$GPGSV,3,1,12,01,52,178,14,07,64,263,,08,54,023,,09,06,218,22,1*66

-62167219199997,$GPGSV,3,2,12,14,12,303,,16,15,100,,17,05,248,,21,72,127,,1*6D

-62167219199997,$GPGSV,3,3,12,22,11,147,28,27,22,049,,28,08,301,,30,34,308,,1*68

-62167219199997,$GLGSV,2,1,05,77,46,126,,78,66,355,,79,16,327,,81,44,229,,1*7A

-62167219199997,$GLGSV,2,2,05,88,72,357,,1*49

-62167219199997,$BDGSV,7,1,25,201,46,139,,202,34,234,,203,51,200,,204,35,122,,1*7A

-62167219199997,$BDGSV,7,2,25,205,13,254,,206,15,195,,207,69,015,,208,40,172,,1*78

-62167219199997,$BDGSV,7,3,25,209,27,220,,210,55,321,,213,20,189,,216,17,202,,1*7A

-62167219199997,$BDGSV,7,4,25,227,66,022,,228,15,044,,230,51,247,,236,29,317,,1*77

-62167219199997,$BDGSV,7,5,25,237,37,142,,238,05,,,239,05,,,240,05,,,1*47

-62167219199997,$BDGSV,7,6,25,241,05,,,242,05,,,243,05,,,244,05,,,1*77

-62167219199997,$BDGSV,7,7,25,245,05,,,1*44

-62167219199997,$QZGSV,1,1,03,193,06,158,,194,68,114,,195,74,068,,1*7C

-62167219199997,$GAGSV,2,1,06,102,57,336,,111,37,039,,124,07,119,,125,57,094,,7*7E

-62167219199997,$GAGSV,2,2,06,130,11,311,,136,81,138,,7*73

-62167219199997,$GPRMC,053458.62,V,3101.965360,N,12127.010560,E,000.0,000.0,120421,,E,N*05

-62167219199997,$GPGGA,053459.62,3101.965360,N,12127.010560,E,0,,0.0,0.0,M,,M,,*70

-62167219199997,$GNGSA,A,1,,,,,,,,,,,,,0.0,0.0,0.0*2E

-62167219199997,$GPGSA,A,1,,,,,,,,,,,,,0.0,0.0,0.0,1*2D

-62167219199997,$GPGSA,A,1,,,,,,,,,,,,,0.0,0.0,0.0,8*24

-62167219199997,$GLGSA,A,1,,,,,,,,,,,,,0.0,0.0,0.0,1*31

-62167219199997,$BDGSA,A,1,,,,,,,,,,,,,0.0,0.0,0.0,1*3C

-62167219199997,$BDGSA,A,1,,,,,,,,,,,,,0.0,0.0,0.0,7*3A

-62167219199997,$GAGSA,A,1,,,,,,,,,,,,,0.0,0.0,0.0,7*3A

-62167219199997,$GAGSA,A,1,,,,,,,,,,,,,0.0,0.0,0.0,1*3C

-62167219199997,$QZGSA,A,1,,,,,,,,,,,,,0.0,0.0,0.0,1*31

-62167219199997,$QZGSA,A,1,,,,,,,,,,,,,0.0,0.0,0.0,8*38

-62167219199997,$GPGSV,3,1,12,01,52,178,13,07,64,263,,08,54,023,,09,06,218,22,1*61

-62167219199997,$GPGSV,3,2,12,14,12,303,,16,15,100,,17,05,248,,21,72,127,,1*6D

-62167219199997,$GPGSV,3,3,12,22,11,147,28,27,22,049,,28,08,301,,30,34,308,,1*68

-62167219199997,$GLGSV,2,1,05,77,46,126,,78,66,355,,79,16,327,,81,44,229,,1*7A

-62167219199997,$GLGSV,2,2,05,88,72,357,,1*49

-62167219199997,$BDGSV,7,1,25,201,46,139,,202,34,234,,203,51,200,,204,35,122,,1*7A

-62167219199997,$BDGSV,7,2,25,205,13,254,,206,15,195,,207,69,015,,208,40,172,,1*78

-62167219199997,$BDGSV,7,3,25,209,27,220,,210,55,321,,213,20,189,,216,17,202,,1*7A

-62167219199997,$BDGSV,7,4,25,227,66,022,,228,15,044,,230,51,247,,236,29,317,,1*77

-62167219199997,$BDGSV,7,5,25,237,37,142,,238,05,,,239,05,,,240,05,,,1*47

-62167219199997,$BDGSV,7,6,25,241,05,,,242,05,,,243,05,,,244,05,,,1*77

-62167219199997,$BDGSV,7,7,25,245,05,,,1*44

-62167219199997,$QZGSV,1,1,03,193,06,158,19,194,68,114,,195,74,068,,1*74

-62167219199997,$GAGSV,2,1,06,102,57,336,,111,37,039,,124,07,119,,125,57,094,,7*7E

-62167219199997,$GAGSV,2,2,06,130,11,311,,136,81,138,,7*73

-62167219199997,$GPRMC,053459.62,V,3101.965360,N,12127.010560,E,000.0,000.0,120421,,E,N*04

-62167219199995,$GPGGA,053500.62,3101.965360,N,12127.010560,E,0,,0.0,0.0,M,,M,,*7D

-62167219199995,$GNGSA,A,1,,,,,,,,,,,,,0.0,0.0,0.0*2E

-62167219199995,$GPGSA,A,1,,,,,,,,,,,,,0.0,0.0,0.0,1*2D

-62167219199995,$GPGSA,A,1,,,,,,,,,,,,,0.0,0.0,0.0,8*24

-62167219199995,$GLGSA,A,1,,,,,,,,,,,,,0.0,0.0,0.0,1*31

-62167219199995,$BDGSA,A,1,,,,,,,,,,,,,0.0,0.0,0.0,1*3C

-62167219199995,$BDGSA,A,1,,,,,,,,,,,,,0.0,0.0,0.0,7*3A

-62167219199995,$GAGSA,A,1,,,,,,,,,,,,,0.0,0.0,0.0,7*3A

-62167219199995,$GAGSA,A,1,,,,,,,,,,,,,0.0,0.0,0.0,1*3C

-62167219199995,$QZGSA,A,1,,,,,,,,,,,,,0.0,0.0,0.0,1*31

-62167219199995,$QZGSA,A,1,,,,,,,,,,,,,0.0,0.0,0.0,8*38

-62167219199995,$GPGSV,3,1,12,01,52,178,12,07,64,263,,08,54,023,,09,06,218,21,1*63

-62167219199995,$GPGSV,3,2,12,14,12,303,,16,15,100,,17,05,248,,21,72,127,,1*6D

-62167219199995,$GPGSV,3,3,12,22,11,147,28,27,22,049,,28,08,301,,30,34,308,,1*68

-62167219199995,$GLGSV,2,1,05,77,46,126,,78,66,355,,79,16,327,,81,44,229,,1*7A

-62167219199995,$GLGSV,2,2,05,88,72,357,,1*49

-62167219199995,$BDGSV,7,1,25,201,46,139,,202,34,234,,203,51,200,,204,35,122,,1*7A

-62167219199995,$BDGSV,7,2,25,205,13,254,,206,15,195,,207,69,015,,208,40,172,,1*78

-62167219199995,$BDGSV,7,3,25,209,27,220,,210,55,321,,213,20,189,,216,17,202,,1*7A

-62167219199995,$BDGSV,7,4,25,227,66,022,,228,15,044,,230,51,247,,236,29,317,,1*77

-62167219199995,$BDGSV,7,5,25,237,37,142,,238,05,,,239,05,,,240,05,,,1*47

-62167219199995,$BDGSV,7,6,25,241,05,,,242,05,,,243,05,,,244,05,,,1*77

-62167219199995,$BDGSV,7,7,25,245,05,,,1*44

-62167219199995,$QZGSV,1,1,03,193,06,158,15,194,68,114,,195,74,068,,1*78

-62167219199995,$GAGSV,2,1,06,102,57,336,,111,37,039,,124,07,119,,125,57,094,,7*7E

-62167219199995,$GAGSV,2,2,06,130,11,311,,136,81,138,,7*73

-62167219199995,$GPRMC,053500.62,V,3101.965360,N,12127.010560,E,000.0,000.0,120421,,E,N*09

-62167219199995,$GPGGA,053501.62,3101.965360,N,12127.010560,E,0,,0.0,0.0,M,,M,,*7C

-62167219199995,$GNGSA,A,1,,,,,,,,,,,,,0.0,0.0,0.0*2E

-62167219199995,$GPGSA,A,1,,,,,,,,,,,,,0.0,0.0,0.0,1*2D

-62167219199995,$GPGSA,A,1,,,,,,,,,,,,,0.0,0.0,0.0,8*24

-62167219199995,$GLGSA,A,1,,,,,,,,,,,,,0.0,0.0,0.0,1*31

-62167219199995,$BDGSA,A,1,,,,,,,,,,,,,0.0,0.0,0.0,1*3C

-62167219199995,$BDGSA,A,1,,,,,,,,,,,,,0.0,0.0,0.0,7*3A

-62167219199995,$GAGSA,A,1,,,,,,,,,,,,,0.0,0.0,0.0,7*3A

-62167219199995,$GAGSA,A,1,,,,,,,,,,,,,0.0,0.0,0.0,1*3C

-62167219199995,$QZGSA,A,1,,,,,,,,,,,,,0.0,0.0,0.0,1*31

-62167219199995,$QZGSA,A,1,,,,,,,,,,,,,0.0,0.0,0.0,8*38

-62167219199995,$GPGSV,3,1,12,01,52,178,13,07,64,263,,08,54,023,,09,06,218,21,1*62

-62167219199995,$GPGSV,3,2,12,14,12,303,,16,15,100,,17,05,248,,21,72,127,,1*6D

-62167219199995,$GPGSV,3,3,12,22,11,147,28,27,22,049,,28,08,301,,30,34,308,,1*68

-62167219199995,$GLGSV,2,1,05,77,46,126,,78,66,355,,79,16,327,,81,44,229,,1*7A

-62167219199995,$GLGSV,2,2,05,88,72,357,,1*49

-62167219199995,$BDGSV,7,1,25,201,46,139,,202,34,234,,203,51,200,,204,35,122,,1*7A

-62167219199995,$BDGSV,7,2,25,205,13,254,,206,15,195,,207,69,015,,208,40,172,,1*78

-62167219199995,$BDGSV,7,3,25,209,27,220,,210,55,321,,213,20,189,,216,17,202,,1*7A

-62167219199995,$BDGSV,7,4,25,227,66,022,,228,15,044,,230,51,247,,236,29,317,,1*77

-62167219199995,$BDGSV,7,5,25,237,37,142,,238,05,,,239,05,,,240,05,,,1*47

-62167219199995,$BDGSV,7,6,25,241,05,,,242,05,,,243,05,,,244,05,,,1*77

-62167219199995,$BDGSV,7,7,25,245,05,,,1*44

-62167219199995,$QZGSV,1,1,03,193,06,158,15,194,68,114,,195,74,068,,1*78

-62167219199995,$GAGSV,2,1,06,102,58,336,,111,37,039,,124,07,119,,125,57,094,,7*71

-62167219199995,$GAGSV,2,2,06,130,11,311,,136,81,138,,7*73

-62167219199995,$GPRMC,053501.62,V,3101.965360,N,12127.010560,E,000.0,000.0,120421,,E,N*08

-62167219199995,$GPGGA,053502.62,3101.965360,N,12127.010560,E,0,,0.0,0.0,M,,M,,*7F

-62167219199995,$GNGSA,A,1,,,,,,,,,,,,,0.0,0.0,0.0*2E

-62167219199995,$GPGSA,A,1,,,,,,,,,,,,,0.0,0.0,0.0,1*2D

-62167219199995,$GPGSA,A,1,,,,,,,,,,,,,0.0,0.0,0.0,8*24

-62167219199995,$GLGSA,A,1,,,,,,,,,,,,,0.0,0.0,0.0,1*31

-62167219199995,$BDGSA,A,1,,,,,,,,,,,,,0.0,0.0,0.0,1*3C

-62167219199995,$BDGSA,A,1,,,,,,,,,,,,,0.0,0.0,0.0,7*3A

-62167219199995,$GAGSA,A,1,,,,,,,,,,,,,0.0,0.0,0.0,7*3A

-62167219199995,$GAGSA,A,1,,,,,,,,,,,,,0.0,0.0,0.0,1*3C

-62167219199995,$QZGSA,A,1,,,,,,,,,,,,,0.0,0.0,0.0,1*31

-62167219199995,$QZGSA,A,1,,,,,,,,,,,,,0.0,0.0,0.0,8*38

-62167219199995,$GPGSV,3,1,12,01,52,178,13,07,64,263,,08,54,023,,09,06,218,20,1*63

-62167219199995,$GPGSV,3,2,12,14,12,303,,16,15,100,,17,05,248,,21,72,127,,1*6D

-62167219199995,$GPGSV,3,3,12,22,11,147,28,27,22,049,,28,08,301,,30,34,308,,1*68

-62167219199995,$GLGSV,2,1,05,77,46,126,,78,66,355,,79,16,327,,81,44,229,,1*7A

-62167219199995,$GLGSV,2,2,05,88,72,357,,1*49

-62167219199995,$BDGSV,7,1,25,201,46,139,,202,34,234,,203,51,200,,204,35,122,,1*7A

-62167219199995,$BDGSV,7,2,25,205,13,254,,206,15,195,,207,69,015,,208,40,172,,1*78

-62167219199995,$BDGSV,7,3,25,209,27,220,,210,55,321,,213,20,189,,216,17,202,,1*7A

-62167219199995,$BDGSV,7,4,25,227,66,022,,228,15,044,,230,51,247,,236,29,317,,1*77

-62167219199995,$BDGSV,7,5,25,237,37,142,,238,05,,,239,05,,,240,05,,,1*47

-62167219199995,$BDGSV,7,6,25,241,05,,,242,05,,,243,05,,,244,05,,,1*77

-62167219199995,$BDGSV,7,7,25,245,05,,,1*44

-62167219199995,$QZGSV,1,1,03,193,06,158,17,194,68,114,,195,74,068,,1*7A

-62167219199995,$GAGSV,2,1,06,102,58,336,,111,37,039,,124,07,119,,125,57,095,,7*70

-62167219199995,$GAGSV,2,2,06,130,11,311,,136,81,138,,7*73

-62167219199995,$GPRMC,053502.62,V,3101.965360,N,12127.010560,E,000.0,000.0,120421,,E,N*0B

-62167219199995,$GPGGA,053503.62,3101.965360,N,12127.010560,E,0,,0.0,0.0,M,,M,,*7E

-62167219199995,$GNGSA,A,1,,,,,,,,,,,,,0.0,0.0,0.0*2E

-62167219199995,$GPGSA,A,1,,,,,,,,,,,,,0.0,0.0,0.0,1*2D

-62167219199995,$GPGSA,A,1,,,,,,,,,,,,,0.0,0.0,0.0,8*24

-62167219199995,$GLGSA,A,1,,,,,,,,,,,,,0.0,0.0,0.0,1*31

-62167219199995,$BDGSA,A,1,,,,,,,,,,,,,0.0,0.0,0.0,1*3C

-62167219199995,$BDGSA,A,1,,,,,,,,,,,,,0.0,0.0,0.0,7*3A

-62167219199995,$GAGSA,A,1,,,,,,,,,,,,,0.0,0.0,0.0,7*3A

-62167219199995,$GAGSA,A,1,,,,,,,,,,,,,0.0,0.0,0.0,1*3C

-62167219199995,$QZGSA,A,1,,,,,,,,,,,,,0.0,0.0,0.0,1*31

-62167219199995,$QZGSA,A,1,,,,,,,,,,,,,0.0,0.0,0.0,8*38

-62167219199995,$GPGSV,3,1,12,01,52,178,14,07,64,263,,08,54,023,,09,06,218,19,1*6E

-62167219199995,$GPGSV,3,2,12,14,12,303,,16,15,100,,17,05,248,,21,72,127,,1*6D

-62167219199995,$GPGSV,3,3,12,22,11,147,27,27,22,049,,28,08,301,,30,34,308,,1*67

-62167219199995,$GLGSV,2,1,05,77,46,126,,78,66,355,,79,16,327,,81,44,229,,1*7A

-62167219199995,$GLGSV,2,2,05,88,72,357,,1*49

-62167219199995,$BDGSV,7,1,25,201,46,139,,202,34,234,,203,51,200,,204,35,122,,1*7A

-62167219199995,$BDGSV,7,2,25,205,13,254,,206,15,195,,207,69,015,,208,40,172,,1*78

-62167219199995,$BDGSV,7,3,25,209,27,220,,210,55,321,,213,20,189,,216,17,202,,1*7A

-62167219199995,$BDGSV,7,4,25,227,66,022,,228,15,044,,230,51,247,,236,29,317,,1*77

-62167219199995,$BDGSV,7,5,25,237,37,142,,238,05,,,239,05,,,240,05,,,1*47

-62167219199995,$BDGSV,7,6,25,241,05,,,242,05,,,243,05,,,244,05,,,1*77

-62167219199995,$BDGSV,7,7,25,245,05,,,1*44

-62167219199995,$QZGSV,1,1,03,193,06,158,16,194,68,114,,195,74,068,,1*7B

-62167219199995,$GAGSV,2,1,06,102,58,336,,111,37,039,,124,07,119,,125,57,095,,7*70

-62167219199995,$GAGSV,2,2,06,130,11,311,,136,81,138,,7*73

-62167219199995,$GPRMC,053503.62,V,3101.965360,N,12127.010560,E,000.0,000.0,120421,,E,N*0A

-62167219199997,$GPGGA,053504.57,3102.043557,N,12127.010828,E,0,5,2.3,11.8,M,,M,,*7E

-62167219199997,$GNGSA,A,1,,,,,,,,,,,,,3.0,2.3,1.9*24

-62167219199997,$GPGSA,A,1,,,,,,,,,,,,,3.0,2.3,1.9,1*27

-62167219199997,$GPGSA,A,1,,,,,,,,,,,,,3.0,2.3,1.9,8*2E

-62167219199997,$GLGSA,A,1,,,,,,,,,,,,,3.0,2.3,1.9,1*3B

-62167219199997,$BDGSA,A,1,,,,,,,,,,,,,3.0,2.3,1.9,1*36

-62167219199997,$BDGSA,A,1,,,,,,,,,,,,,3.0,2.3,1.9,7*30

-62167219199997,$GAGSA,A,1,,,,,,,,,,,,,3.0,2.3,1.9,7*30

-62167219199997,$GAGSA,A,1,,,,,,,,,,,,,3.0,2.3,1.9,1*36

-62167219199997,$QZGSA,A,1,,,,,,,,,,,,,3.0,2.3,1.9,1*3B

-62167219199997,$QZGSA,A,1,,,,,,,,,,,,,3.0,2.3,1.9,8*32

-62167219199997,$GPGSV,3,1,12,01,52,178,14,07,64,263,,08,53,023,,09,06,218,21,1*62

-62167219199997,$GPGSV,3,2,12,14,12,303,,16,15,100,18,17,05,248,,21,72,127,,1*64

-62167219199997,$GPGSV,3,3,12,22,11,147,28,27,22,049,,28,08,301,,30,34,308,,1*68

-62167219199997,$GLGSV,2,1,05,77,46,127,,78,66,355,,79,16,327,,81,44,229,,1*7B

-62167219199997,$GLGSV,2,2,05,88,72,357,,1*49

-62167219199997,$BDGSV,7,1,25,201,46,139,,202,34,234,,203,51,200,,204,35,122,,1*7A

-62167219199997,$BDGSV,7,2,25,205,13,254,,206,15,195,,207,69,015,,208,40,172,,1*78

-62167219199997,$BDGSV,7,3,25,209,27,220,,210,55,321,,213,20,189,,216,17,202,,1*7A

-62167219199997,$BDGSV,7,4,25,227,66,022,,228,15,044,,230,51,247,,236,29,317,,1*77

-62167219199997,$BDGSV,7,5,25,237,37,142,,238,05,,,239,05,,,240,05,,,1*47

-62167219199997,$BDGSV,7,6,25,241,05,,,242,05,,,243,05,,,244,05,,,1*77

-62167219199997,$BDGSV,7,7,25,245,05,,,1*44

-62167219199997,$QZGSV,1,1,03,193,06,158,16,194,68,114,,195,74,068,,1*7B

-62167219199997,$GAGSV,2,1,06,102,58,336,,111,37,039,,124,07,119,,125,57,095,,7*70

-62167219199997,$GAGSV,2,2,06,130,11,311,,136,81,138,,7*73

-62167219199997,$GPRMC,053504.57,V,3102.043557,N,12127.010828,E,028.0,182.5,120421,,E,N*02

-62167219199995,$GPGGA,053505.57,3102.035926,N,12127.011159,E,0,5,2.3,5.5,M,,M,,*42

-62167219199995,$GNGSA,A,1,,,,,,,,,,,,,3.0,2.3,1.9*24

-62167219199995,$GPGSA,A,1,,,,,,,,,,,,,3.0,2.3,1.9,1*27

-62167219199995,$GPGSA,A,1,,,,,,,,,,,,,3.0,2.3,1.9,8*2E

-62167219199995,$GLGSA,A,1,,,,,,,,,,,,,3.0,2.3,1.9,1*3B

-62167219199995,$BDGSA,A,1,,,,,,,,,,,,,3.0,2.3,1.9,1*36

-62167219199995,$BDGSA,A,1,,,,,,,,,,,,,3.0,2.3,1.9,7*30

-62167219199995,$GAGSA,A,1,,,,,,,,,,,,,3.0,2.3,1.9,7*30

-62167219199995,$GAGSA,A,1,,,,,,,,,,,,,3.0,2.3,1.9,1*36

-62167219199995,$QZGSA,A,1,,,,,,,,,,,,,3.0,2.3,1.9,1*3B

-62167219199995,$QZGSA,A,1,,,,,,,,,,,,,3.0,2.3,1.9,8*32

-62167219199995,$GPGSV,3,1,12,01,52,178,15,07,64,263,,08,53,023,,09,06,218,21,1*63

-62167219199995,$GPGSV,3,2,12,14,12,303,,16,15,100,18,17,05,248,,21,72,127,,1*64

-62167219199995,$GPGSV,3,3,12,22,11,147,27,27,22,049,,28,08,301,,30,34,308,,1*67

-62167219199995,$GLGSV,2,1,05,77,46,127,,78,66,355,,79,16,327,,81,44,229,,1*7B

-62167219199995,$GLGSV,2,2,05,88,72,357,,1*49

-62167219199995,$BDGSV,7,1,25,201,46,139,,202,34,234,,203,51,200,,204,35,122,,1*7A

-62167219199995,$BDGSV,7,2,25,205,13,254,,206,15,195,,207,69,015,,208,40,172,19,1*70

-62167219199995,$BDGSV,7,3,25,209,27,220,,210,55,321,,213,20,189,,216,17,202,,1*7A

-62167219199995,$BDGSV,7,4,25,227,66,022,,228,15,044,,230,51,247,,236,29,317,,1*77

-62167219199995,$BDGSV,7,5,25,237,37,142,,238,05,,,239,05,,,240,05,,,1*47

-62167219199995,$BDGSV,7,6,25,241,05,,,242,05,,,243,05,,,244,05,,,1*77

-62167219199995,$BDGSV,7,7,25,245,05,,,1*44

-62167219199995,$QZGSV,1,1,03,193,06,158,16,194,68,114,,195,74,068,,1*7B

-62167219199995,$GAGSV,2,1,06,102,58,336,,111,37,039,,124,07,119,,125,57,095,,7*70

-62167219199995,$GAGSV,2,2,06,130,11,311,,136,81,138,,7*73

-62167219199995,$GPRMC,053505.57,V,3102.035926,N,12127.011159,E,001.5,358.7,120421,,E,N*0F

-62167219199995,$GPGGA,053506.57,3102.026288,N,12127.010739,E,0,5,2.3,0.9,M,,M,,*44

-62167219199995,$GNGSA,A,1,,,,,,,,,,,,,3.0,2.3,1.9*24

-62167219199995,$GPGSA,A,1,,,,,,,,,,,,,3.0,2.3,1.9,1*27

-62167219199995,$GPGSA,A,1,,,,,,,,,,,,,3.0,2.3,1.9,8*2E

-62167219199995,$GLGSA,A,1,,,,,,,,,,,,,3.0,2.3,1.9,1*3B

-62167219199995,$BDGSA,A,1,,,,,,,,,,,,,3.0,2.3,1.9,1*36

-62167219199995,$BDGSA,A,1,,,,,,,,,,,,,3.0,2.3,1.9,7*30

-62167219199995,$GAGSA,A,1,,,,,,,,,,,,,3.0,2.3,1.9,7*30

-62167219199995,$GAGSA,A,1,,,,,,,,,,,,,3.0,2.3,1.9,1*36

-62167219199995,$QZGSA,A,1,,,,,,,,,,,,,3.0,2.3,1.9,1*3B

-62167219199995,$QZGSA,A,1,,,,,,,,,,,,,3.0,2.3,1.9,8*32

-62167219199995,$GPGSV,3,1,12,01,52,178,14,07,64,263,,08,53,023,,09,06,218,21,1*62

-62167219199995,$GPGSV,3,2,12,14,12,303,,16,15,100,15,17,05,248,,21,72,127,,1*69

-62167219199995,$GPGSV,3,3,12,22,11,147,26,27,22,049,,28,08,301,,30,34,308,,1*66

-62167219199995,$GLGSV,2,1,05,77,46,127,,78,66,355,,79,16,327,,81,44,229,,1*7B

-62167219199995,$GLGSV,2,2,05,88,72,357,,1*49

-62167219199995,$BDGSV,7,1,25,201,46,139,,202,34,234,,203,51,200,,204,35,122,,1*7A

-62167219199995,$BDGSV,7,2,25,205,13,254,,206,15,195,,207,69,015,,208,40,172,09,1*71

-62167219199995,$BDGSV,7,3,25,209,27,220,,210,55,321,,213,20,189,,216,17,202,,1*7A

-62167219199995,$BDGSV,7,4,25,227,66,022,,228,15,044,,230,51,247,,236,29,317,,1*77

-62167219199995,$BDGSV,7,5,25,237,37,142,,238,05,,,239,05,,,240,05,,,1*47

-62167219199995,$BDGSV,7,6,25,241,05,,,242,05,,,243,05,,,244,05,,,1*77

-62167219199995,$BDGSV,7,7,25,245,05,,,1*44

-62167219199995,$QZGSV,1,1,03,193,06,158,16,194,68,114,,195,74,068,,1*7B

-62167219199995,$GAGSV,3,1,07,102,58,336,,111,37,039,,124,07,119,,125,57,095,,7*70

-62167219199995,$GAGSV,3,2,07,130,11,311,,136,81,138,,7*73

-62167219199995,$GAGSV,3,3,07,124,07,119,22,1*7B

-62167219199995,$GPRMC,053506.57,V,3102.026288,N,12127.010739,E,002.7,338.5,120421,,E,N*05

-62167219199995,$GPGGA,053508.00,3102.024690,N,12127.011974,E,0,5,2.3,-12.8,M,,M,,*5E

-62167219199995,$GNGSA,A,1,,,,,,,,,,,,,3.0,2.3,1.9*24

-62167219199995,$GPGSA,A,1,,,,,,,,,,,,,3.0,2.3,1.9,1*27

-62167219199995,$GPGSA,A,1,,,,,,,,,,,,,3.0,2.3,1.9,8*2E

-62167219199995,$GLGSA,A,1,,,,,,,,,,,,,3.0,2.3,1.9,1*3B

-62167219199995,$BDGSA,A,1,,,,,,,,,,,,,3.0,2.3,1.9,1*36

-62167219199995,$BDGSA,A,1,,,,,,,,,,,,,3.0,2.3,1.9,7*30

-62167219199995,$GAGSA,A,1,,,,,,,,,,,,,3.0,2.3,1.9,7*30

-62167219199995,$GAGSA,A,1,,,,,,,,,,,,,3.0,2.3,1.9,1*36

-62167219199995,$QZGSA,A,1,,,,,,,,,,,,,3.0,2.3,1.9,1*3B

-62167219199995,$QZGSA,A,1,,,,,,,,,,,,,3.0,2.3,1.9,8*32

-62167219199995,$GPGSV,3,1,12,01,52,178,14,07,64,263,,08,53,023,,09,06,218,23,1*60

-62167219199995,$GPGSV,3,2,12,14,12,303,,16,15,100,15,17,05,248,,21,72,127,,1*69

-62167219199995,$GPGSV,3,3,12,22,11,147,26,27,22,049,,28,08,301,,30,34,308,,1*66

-62167219199995,$GLGSV,2,1,05,77,46,127,,78,66,355,,79,16,327,,81,44,229,,1*7B

-62167219199995,$GLGSV,2,2,05,88,72,357,,1*49

-62167219199995,$BDGSV,7,1,25,201,46,139,,202,34,234,,203,51,200,,204,35,122,,1*7A

-62167219199995,$BDGSV,7,2,25,205,13,254,,206,15,195,,207,69,015,,208,40,172,13,1*7A

-62167219199995,$BDGSV,7,3,25,209,27,220,,210,55,321,,213,20,189,,216,17,202,,1*7A

-62167219199995,$BDGSV,7,4,25,227,66,022,,228,15,044,,230,51,247,,236,29,317,,1*77

-62167219199995,$BDGSV,7,5,25,237,37,142,,238,05,,,239,05,,,240,05,,,1*47

-62167219199995,$BDGSV,7,6,25,241,05,,,242,05,,,243,05,,,244,05,,,1*77

-62167219199995,$BDGSV,7,7,25,245,05,,,1*44

-62167219199995,$QZGSV,1,1,03,193,06,158,16,194,68,114,,195,74,068,,1*7B

-62167219199995,$GAGSV,3,1,07,102,58,336,,111,37,039,,124,07,119,,125,57,095,,7*70

-62167219199995,$GAGSV,3,2,07,130,11,311,,136,81,138,,7*73

-62167219199995,$GAGSV,3,3,07,124,07,119,20,1*79

-62167219199995,$GPRMC,053508.00,V,3102.024690,N,12127.011974,E,001.0,030.1,120421,,E,N*0B

-62167219199997,$GPGGA,053509.00,3102.024690,N,12127.011974,E,0,,2.3,-12.8,M,,M,,*6A

-62167219199997,$GNGSA,A,1,,,,,,,,,,,,,3.0,2.3,1.9*24

-62167219199997,$GPGSA,A,1,,,,,,,,,,,,,3.0,2.3,1.9,1*27

-62167219199997,$GPGSA,A,1,,,,,,,,,,,,,3.0,2.3,1.9,8*2E

-62167219199997,$GLGSA,A,1,,,,,,,,,,,,,3.0,2.3,1.9,1*3B

-62167219199997,$BDGSA,A,1,,,,,,,,,,,,,3.0,2.3,1.9,1*36

-62167219199997,$BDGSA,A,1,,,,,,,,,,,,,3.0,2.3,1.9,7*30

-62167219199997,$GAGSA,A,1,,,,,,,,,,,,,3.0,2.3,1.9,7*30

-62167219199997,$GAGSA,A,1,,,,,,,,,,,,,3.0,2.3,1.9,1*36

-62167219199997,$QZGSA,A,1,,,,,,,,,,,,,3.0,2.3,1.9,1*3B

-62167219199997,$QZGSA,A,1,,,,,,,,,,,,,3.0,2.3,1.9,8*32

-62167219199997,$GPGSV,3,1,12,01,52,178,14,07,64,263,,08,53,023,,09,06,218,22,1*61

-62167219199997,$GPGSV,3,2,12,14,12,303,,16,15,100,14,17,05,248,,21,72,127,,1*68

-62167219199997,$GPGSV,3,3,12,22,11,147,25,27,22,049,,28,08,301,,30,34,308,,1*65

-62167219199997,$GLGSV,2,1,05,77,46,127,,78,66,355,,79,16,327,,81,44,229,,1*7B

-62167219199997,$GLGSV,2,2,05,88,72,357,,1*49

-62167219199997,$BDGSV,7,1,25,201,46,139,,202,34,234,,203,51,200,,204,35,122,,1*7A

-62167219199997,$BDGSV,7,2,25,205,13,254,,206,15,195,,207,69,015,,208,40,172,14,1*7D

-62167219199997,$BDGSV,7,3,25,209,27,220,,210,55,321,,213,20,189,,216,17,202,,1*7A

-62167219199997,$BDGSV,7,4,25,227,66,022,,228,15,044,,230,51,247,,236,29,317,,1*77

-62167219199997,$BDGSV,7,5,25,237,37,142,,238,05,,,239,05,,,240,05,,,1*47

-62167219199997,$BDGSV,7,6,25,241,05,,,242,05,,,243,05,,,244,05,,,1*77

-62167219199997,$BDGSV,7,7,25,245,05,,,1*44

-62167219199997,$QZGSV,1,1,03,193,06,158,16,194,68,114,,195,74,068,,1*7B

-62167219199997,$GAGSV,3,1,07,102,58,336,,111,37,039,,124,07,119,,125,57,095,,7*70

-62167219199997,$GAGSV,3,2,07,130,11,311,,136,81,138,,7*73

-62167219199997,$GAGSV,3,3,07,124,07,119,19,1*73

-62167219199997,$GPRMC,053509.00,V,3102.024690,N,12127.011974,E,001.0,030.1,120421,,E,N*0A

-62167219199994,$GPGGA,053510.00,3102.018894,N,12127.016235,E,0,7,2.3,14.2,M,,M,,*78

-62167219199994,$GNGSA,A,1,,,,,,,,,,,,,2.8,2.3,1.6*22

-62167219199994,$GPGSA,A,1,,,,,,,,,,,,,2.8,2.3,1.6,1*21

-62167219199994,$GPGSA,A,1,,,,,,,,,,,,,2.8,2.3,1.6,8*28

-62167219199994,$GLGSA,A,1,,,,,,,,,,,,,2.8,2.3,1.6,1*3D

-62167219199994,$BDGSA,A,1,,,,,,,,,,,,,2.8,2.3,1.6,1*30

-62167219199994,$BDGSA,A,1,,,,,,,,,,,,,2.8,2.3,1.6,7*36

-62167219199994,$GAGSA,A,1,,,,,,,,,,,,,2.8,2.3,1.6,7*36

-62167219199994,$GAGSA,A,1,,,,,,,,,,,,,2.8,2.3,1.6,1*30

-62167219199994,$QZGSA,A,1,,,,,,,,,,,,,2.8,2.3,1.6,1*3D

-62167219199994,$QZGSA,A,1,,,,,,,,,,,,,2.8,2.3,1.6,8*34

-62167219199994,$GPGSV,3,1,12,01,52,178,14,07,64,263,,08,53,023,,09,06,218,21,1*62

-62167219199994,$GPGSV,3,2,12,14,12,303,,16,15,100,14,17,05,248,,21,72,127,,1*68

-62167219199994,$GPGSV,3,3,12,22,11,147,26,27,22,049,,28,08,301,,30,34,308,,1*66

-62167219199994,$GLGSV,2,1,05,77,46,127,,78,66,355,,79,16,327,,81,44,229,,1*7B

-62167219199994,$GLGSV,2,2,05,88,72,357,,1*49

-62167219199994,$BDGSV,6,1,21,201,46,139,,202,34,234,,203,51,200,,204,35,122,,1*7F

-62167219199994,$BDGSV,6,2,21,205,13,254,,206,15,195,,207,69,015,,208,40,172,15,1*79

-62167219199994,$BDGSV,6,3,21,209,27,220,,210,55,321,,213,20,189,,216,17,202,,1*7F

-62167219199994,$BDGSV,6,4,21,227,66,022,,228,15,044,,230,51,247,,236,29,317,,1*72

-62167219199994,$BDGSV,6,5,21,237,37,142,,238,05,,,239,05,,,240,05,,,1*42

-62167219199994,$BDGSV,6,6,21,245,05,,,1*40

-62167219199994,$QZGSV,1,1,03,193,06,158,16,194,68,114,,195,74,068,,1*7B

-62167219199994,$GAGSV,3,1,07,102,58,336,,111,37,039,,124,07,119,,125,57,095,,7*70

-62167219199994,$GAGSV,3,2,07,130,11,311,,136,81,138,,7*73

-62167219199994,$GAGSV,3,3,07,124,07,119,19,1*73

-62167219199994,$GPRMC,053510.00,V,3102.018894,N,12127.016235,E,002.9,128.1,120421,,E,N*0C

-62167219199995,$GPGGA,053511.00,3102.014503,N,12127.010609,E,0,7,2.2,10.7,M,,M,,*7B

-62167219199995,$GNGSA,A,1,,,,,,,,,,,,,2.7,2.2,1.5*2F

-62167219199995,$GPGSA,A,1,,,,,,,,,,,,,2.7,2.2,1.5,1*2C

-62167219199995,$GPGSA,A,1,,,,,,,,,,,,,2.7,2.2,1.5,8*25

-62167219199995,$GLGSA,A,1,,,,,,,,,,,,,2.7,2.2,1.5,1*30

-62167219199995,$BDGSA,A,1,,,,,,,,,,,,,2.7,2.2,1.5,1*3D

-62167219199995,$BDGSA,A,1,,,,,,,,,,,,,2.7,2.2,1.5,7*3B

-62167219199995,$GAGSA,A,1,,,,,,,,,,,,,2.7,2.2,1.5,7*3B

-62167219199995,$GAGSA,A,1,,,,,,,,,,,,,2.7,2.2,1.5,1*3D

-62167219199995,$QZGSA,A,1,,,,,,,,,,,,,2.7,2.2,1.5,1*30

-62167219199995,$QZGSA,A,1,,,,,,,,,,,,,2.7,2.2,1.5,8*39

-62167219199995,$GPGSV,3,1,12,01,52,178,15,07,64,263,,08,53,023,,09,06,218,19,1*68

-62167219199995,$GPGSV,3,2,12,14,12,303,,16,15,100,13,17,05,248,,21,72,126,,1*6E

-62167219199995,$GPGSV,3,3,12,22,11,147,26,27,22,049,,28,08,301,,30,34,308,,1*66

-62167219199995,$GLGSV,2,1,05,77,46,127,,78,66,355,,79,16,327,,81,44,229,,1*7B

-62167219199995,$GLGSV,2,2,05,88,72,357,,1*49

-62167219199995,$BDGSV,6,1,21,201,46,139,,202,34,234,,203,51,200,,204,35,122,,1*7F

-62167219199995,$BDGSV,6,2,21,205,13,254,,206,15,195,,207,69,015,,208,40,172,15,1*79

-62167219199995,$BDGSV,6,3,21,209,27,220,,210,55,321,,213,20,189,,216,17,202,,1*7F

-62167219199995,$BDGSV,6,4,21,227,66,022,,228,15,044,,230,51,247,,236,29,317,,1*72

-62167219199995,$BDGSV,6,5,21,237,37,142,,238,05,,,239,05,,,240,05,,,1*42

-62167219199995,$BDGSV,6,6,21,245,05,,,1*40

-62167219199995,$QZGSV,1,1,03,193,06,158,16,194,68,114,,195,74,068,,1*7B

-62167219199995,$GAGSV,3,1,07,102,58,336,,111,37,039,,124,07,119,,125,56,095,,7*71

-62167219199995,$GAGSV,3,2,07,130,11,311,,136,81,138,,7*73

-62167219199995,$GAGSV,3,3,07,124,07,119,18,1*72

-62167219199995,$GPRMC,053511.00,V,3102.014503,N,12127.010609,E,003.2,143.4,120421,,E,N*0D

1618205712010,$GPGGA,053512.00,3102.014503,N,12127.010609,E,1,7,2.2,10.7,M,,M,,*79

1618205712010,$GNGSA,A,3,1,9,16,22,208,9,193,124,,,,,2.7,2.2,1.5*2D

1618205712010,$GPGSA,A,3,1,9,16,22,,,,,,,,,2.7,2.2,1.5,1*21

1618205712010,$GPGSA,A,3,9,,,,,,,,,,,,2.7,2.2,1.5,8*1E

1618205712010,$GLGSA,A,3,,,,,,,,,,,,,2.7,2.2,1.5,1*32

1618205712010,$BDGSA,A,3,208,,,,,,,,,,,,2.7,2.2,1.5,1*05

1618205712010,$BDGSA,A,3,,,,,,,,,,,,,2.7,2.2,1.5,7*39

1618205712010,$GAGSA,A,3,,,,,,,,,,,,,2.7,2.2,1.5,7*39

1618205712010,$GAGSA,A,3,124,,,,,,,,,,,,2.7,2.2,1.5,1*08

1618205712010,$QZGSA,A,3,193,,,,,,,,,,,,2.7,2.2,1.5,1*09

1618205712010,$QZGSA,A,3,,,,,,,,,,,,,2.7,2.2,1.5,8*3B

1618205712010,$GPGSV,4,1,13,01,52,178,14,07,64,263,,08,53,023,,09,06,218,20,1*65

1618205712010,$GPGSV,4,2,13,14,12,303,,16,15,100,13,17,05,248,,21,72,126,,1*68

1618205712010,$GPGSV,4,3,13,22,11,147,28,27,22,049,,28,08,301,,30,34,308,,1*6E

1618205712010,$GPGSV,4,4,13,09,06,218,23,8*5A

1618205712010,$GLGSV,2,1,05,77,46,127,,78,66,355,,79,16,327,,81,44,229,,1*7B

1618205712010,$GLGSV,2,2,05,88,72,357,,1*49

1618205712010,$BDGSV,6,1,21,201,46,139,,202,34,234,,203,51,200,,204,35,122,,1*7F

1618205712010,$BDGSV,6,2,21,205,13,254,,206,15,195,,207,69,015,,208,40,172,15,1*79

1618205712010,$BDGSV,6,3,21,209,27,220,,210,55,321,,213,20,189,,216,17,201,,1*7C

1618205712010,$BDGSV,6,4,21,227,66,022,,228,15,044,,230,51,247,,236,29,317,,1*72

1618205712010,$BDGSV,6,5,21,237,37,142,,238,05,,,239,05,,,240,05,,,1*42

1618205712010,$BDGSV,6,6,21,245,05,,,1*40

1618205712010,$QZGSV,1,1,03,193,06,158,15,194,68,114,,195,74,068,,1*78

1618205712010,$GAGSV,3,1,07,102,58,336,,111,37,039,,124,07,119,,125,56,095,,7*71

1618205712010,$GAGSV,3,2,07,130,11,311,,136,81,138,,7*73

1618205712010,$GAGSV,3,3,07,124,07,119,18,1*72

1618205712010,$GPRMC,053512.00,A,3102.014503,N,12127.010609,E,000.0,143.4,120421,,E,A*17

1618205713007,$GPGGA,053513.00,3102.014503,N,12127.010609,E,1,7,2.2,10.7,M,,M,,*78

1618205713007,$GNGSA,A,3,1,9,16,22,208,9,193,124,193,,,,2.7,2.2,1.5*16

1618205713007,$GPGSA,A,3,1,9,16,22,,,,,,,,,2.7,2.2,1.5,1*21

1618205713007,$GPGSA,A,3,9,,,,,,,,,,,,2.7,2.2,1.5,8*1E

1618205713007,$GLGSA,A,3,,,,,,,,,,,,,2.7,2.2,1.5,1*32

1618205713007,$BDGSA,A,3,208,,,,,,,,,,,,2.7,2.2,1.5,1*05

1618205713007,$BDGSA,A,3,,,,,,,,,,,,,2.7,2.2,1.5,7*39

1618205713007,$GAGSA,A,3,,,,,,,,,,,,,2.7,2.2,1.5,7*39

1618205713007,$GAGSA,A,3,124,,,,,,,,,,,,2.7,2.2,1.5,1*08

1618205713007,$QZGSA,A,3,193,,,,,,,,,,,,2.7,2.2,1.5,1*09

1618205713007,$QZGSA,A,3,193,,,,,,,,,,,,2.7,2.2,1.5,8*00

1618205713007,$GPGSV,4,1,13,01,52,178,14,07,64,263,,08,53,023,,09,06,218,20,1*65

1618205713007,$GPGSV,4,2,13,14,12,303,,16,15,100,12,17,05,248,,21,72,126,,1*69

1618205713007,$GPGSV,4,3,13,22,11,147,28,27,22,049,,28,08,301,,30,34,308,,1*6E

1618205713007,$GPGSV,4,4,13,09,06,218,19,8*53

1618205713007,$GLGSV,2,1,05,77,46,127,,78,66,355,,79,16,327,,81,44,229,,1*7B

1618205713007,$GLGSV,2,2,05,88,72,357,,1*49

1618205713007,$BDGSV,6,1,21,201,46,139,,202,34,234,,203,51,200,,204,35,122,,1*7F

1618205713007,$BDGSV,6,2,21,205,13,254,,206,15,195,,207,69,015,,208,40,172,15,1*79

1618205713007,$BDGSV,6,3,21,209,27,220,,210,55,321,,213,20,189,,216,17,201,,1*7C

1618205713007,$BDGSV,6,4,21,227,66,022,,228,15,044,,230,51,247,,236,29,317,,1*72

1618205713007,$BDGSV,6,5,21,237,37,142,,238,05,,,239,05,,,240,05,,,1*42

1618205713007,$BDGSV,6,6,21,245,05,,,1*40

1618205713007,$QZGSV,2,1,04,193,06,158,15,194,68,114,,195,74,068,,1*7C

1618205713007,$QZGSV,2,2,04,193,06,158,21,8*77

1618205713007,$GAGSV,3,1,07,102,58,336,,111,37,039,,124,07,119,,125,56,095,,7*71

1618205713007,$GAGSV,3,2,07,130,11,311,,136,81,138,,7*73

1618205713007,$GAGSV,3,3,07,124,07,119,18,1*72

1618205713007,$GPRMC,053513.00,A,3102.014503,N,12127.010609,E,000.0,143.4,120421,,E,A*16

1618205714005,$GPGGA,053514.00,3102.014503,N,12127.010609,E,1,6,3.3,10.7,M,,M,,*7E

1618205714005,$GNGSA,A,3,1,9,16,22,208,9,193,124,193,,,,3.7,3.3,1.6*14

1618205714005,$GPGSA,A,3,1,9,16,22,,,,,,,,,3.7,3.3,1.6,1*23

1618205714005,$GPGSA,A,3,9,,,,,,,,,,,,3.7,3.3,1.6,8*1C

1618205714005,$GLGSA,A,3,,,,,,,,,,,,,3.7,3.3,1.6,1*30

1618205714005,$BDGSA,A,3,208,,,,,,,,,,,,3.7,3.3,1.6,1*07

1618205714005,$BDGSA,A,3,,,,,,,,,,,,,3.7,3.3,1.6,7*3B

1618205714005,$GAGSA,A,3,,,,,,,,,,,,,3.7,3.3,1.6,7*3B

1618205714005,$GAGSA,A,3,124,,,,,,,,,,,,3.7,3.3,1.6,1*0A

1618205714005,$QZGSA,A,3,193,,,,,,,,,,,,3.7,3.3,1.6,1*0B

1618205714005,$QZGSA,A,3,193,,,,,,,,,,,,3.7,3.3,1.6,8*02

1618205714005,$GPGSV,4,1,13,01,52,178,13,07,64,263,,08,53,023,,09,06,218,21,1*63

1618205714005,$GPGSV,4,2,13,14,12,303,,16,15,100,11,17,05,248,,21,72,126,,1*6A

1618205714005,$GPGSV,4,3,13,22,11,147,27,27,22,049,,28,08,301,,30,34,308,,1*61

1618205714005,$GPGSV,4,4,13,09,06,218,20,8*59

1618205714005,$GLGSV,2,1,05,77,46,127,,78,66,355,,79,16,327,,81,44,229,,1*7B

1618205714005,$GLGSV,2,2,05,88,72,357,,1*49

1618205714005,$BDGSV,6,1,21,201,46,139,,202,34,234,,203,51,200,,204,35,122,,1*7F

1618205714005,$BDGSV,6,2,21,205,13,254,,206,15,195,,207,69,015,,208,40,172,14,1*78

1618205714005,$BDGSV,6,3,21,209,27,220,,210,55,321,,213,20,189,,216,17,201,,1*7C

1618205714005,$BDGSV,6,4,21,227,66,022,,228,15,044,,230,51,247,,236,29,317,,1*72

1618205714005,$BDGSV,6,5,21,237,37,142,,238,05,,,239,05,,,240,05,,,1*42

1618205714005,$BDGSV,6,6,21,245,05,,,1*40

1618205714005,$QZGSV,2,1,04,193,06,158,14,194,68,114,,195,74,068,,1*7D

1618205714005,$QZGSV,2,2,04,193,06,158,17,8*72

1618205714005,$GAGSV,3,1,07,102,58,336,,111,37,039,,124,07,119,,125,56,095,,7*71

1618205714005,$GAGSV,3,2,07,130,11,311,,136,81,138,,7*73

1618205714005,$GAGSV,3,3,07,124,07,119,18,1*72

1618205714005,$GPRMC,053514.00,A,3102.014503,N,12127.010609,E,002.2,143.4,120421,,E,A*11

1618205715008,$GPGGA,053515.00,3102.014503,N,12127.010609,E,1,6,3.3,10.7,M,,M,,*7F

1618205715008,$GNGSA,A,3,1,9,16,22,208,9,193,124,193,,,,3.7,3.3,1.6*14

1618205715008,$GPGSA,A,3,1,9,16,22,,,,,,,,,3.7,3.3,1.6,1*23

1618205715008,$GPGSA,A,3,9,,,,,,,,,,,,3.7,3.3,1.6,8*1C

1618205715008,$GLGSA,A,3,,,,,,,,,,,,,3.7,3.3,1.6,1*30

1618205715008,$BDGSA,A,3,208,,,,,,,,,,,,3.7,3.3,1.6,1*07

1618205715008,$BDGSA,A,3,,,,,,,,,,,,,3.7,3.3,1.6,7*3B

1618205715008,$GAGSA,A,3,,,,,,,,,,,,,3.7,3.3,1.6,7*3B

1618205715008,$GAGSA,A,3,124,,,,,,,,,,,,3.7,3.3,1.6,1*0A

1618205715008,$QZGSA,A,3,193,,,,,,,,,,,,3.7,3.3,1.6,1*0B

1618205715008,$QZGSA,A,3,193,,,,,,,,,,,,3.7,3.3,1.6,8*02

1618205715008,$GPGSV,4,1,13,01,52,178,12,07,64,263,,08,53,023,,09,06,218,24,1*67

1618205715008,$GPGSV,4,2,13,14,12,303,,16,15,100,11,17,05,248,,21,72,126,,1*6A

1618205715008,$GPGSV,4,3,13,22,11,147,28,27,22,050,,28,08,301,,30,34,308,,1*66

1618205715008,$GPGSV,4,4,13,09,06,218,21,8*58

1618205715008,$GLGSV,2,1,05,77,46,127,,78,66,355,,79,16,327,,81,44,229,,1*7B

1618205715008,$GLGSV,2,2,05,88,72,357,,1*49

1618205715008,$BDGSV,6,1,21,201,46,139,,202,34,234,,203,51,200,,204,35,122,,1*7F

1618205715008,$BDGSV,6,2,21,205,13,254,,206,15,195,,207,69,015,,208,40,172,12,1*7E

1618205715008,$BDGSV,6,3,21,209,27,220,,210,55,321,,213,20,189,,216,17,201,,1*7C

1618205715008,$BDGSV,6,4,21,227,66,022,,228,15,044,,230,51,247,,236,29,317,,1*72

1618205715008,$BDGSV,6,5,21,237,37,142,,238,05,,,239,05,,,240,05,,,1*42

1618205715008,$BDGSV,6,6,21,245,05,,,1*40

1618205715008,$QZGSV,2,1,04,193,06,158,13,194,68,114,,195,74,068,,1*7A

1618205715008,$QZGSV,2,2,04,193,06,158,19,8*7C

1618205715008,$GAGSV,3,1,07,102,58,336,,111,37,039,,124,07,119,,125,56,095,,7*71

1618205715008,$GAGSV,3,2,07,130,11,311,,136,81,138,,7*73

1618205715008,$GAGSV,3,3,07,124,07,119,18,1*72

1618205715008,$GPRMC,053515.00,A,3102.014503,N,12127.010609,E,001.6,143.4,120421,,E,A*17

1618205716007,$GPGGA,053516.00,3102.014503,N,12127.010609,E,1,6,3.3,10.7,M,,M,,*7C

1618205716007,$GNGSA,A,3,1,9,16,22,208,9,193,124,193,,,,3.7,3.3,1.6*14

1618205716007,$GPGSA,A,3,1,9,16,22,,,,,,,,,3.7,3.3,1.6,1*23

1618205716007,$GPGSA,A,3,9,,,,,,,,,,,,3.7,3.3,1.6,8*1C

1618205716007,$GLGSA,A,3,,,,,,,,,,,,,3.7,3.3,1.6,1*30

1618205716007,$BDGSA,A,3,208,,,,,,,,,,,,3.7,3.3,1.6,1*07

1618205716007,$BDGSA,A,3,,,,,,,,,,,,,3.7,3.3,1.6,7*3B

1618205716007,$GAGSA,A,3,,,,,,,,,,,,,3.7,3.3,1.6,7*3B

1618205716007,$GAGSA,A,3,124,,,,,,,,,,,,3.7,3.3,1.6,1*0A

1618205716007,$QZGSA,A,3,193,,,,,,,,,,,,3.7,3.3,1.6,1*0B

1618205716007,$QZGSA,A,3,193,,,,,,,,,,,,3.7,3.3,1.6,8*02

1618205716007,$GPGSV,4,1,13,01,52,178,12,07,64,263,,08,53,024,,09,06,218,24,1*60

1618205716007,$GPGSV,4,2,13,14,12,303,,16,15,100,11,17,05,248,,21,72,126,,1*6A

1618205716007,$GPGSV,4,3,13,22,11,147,27,27,22,050,,28,08,301,,30,34,308,,1*69

1618205716007,$GPGSV,4,4,13,09,06,218,19,8*53

1618205716007,$GLGSV,2,1,05,77,46,127,,78,67,355,,79,16,327,,81,44,229,,1*7A

1618205716007,$GLGSV,2,2,05,88,72,357,,1*49

1618205716007,$BDGSV,6,1,21,201,46,139,,202,34,234,,203,51,200,,204,35,122,,1*7F

1618205716007,$BDGSV,6,2,21,205,13,254,,206,15,195,,207,69,015,,208,40,172,12,1*7E

1618205716007,$BDGSV,6,3,21,209,27,220,,210,55,321,,213,20,189,,216,17,201,,1*7C

1618205716007,$BDGSV,6,4,21,227,66,022,,228,15,044,,230,51,247,,236,29,317,,1*72

1618205716007,$BDGSV,6,5,21,237,37,142,,238,05,,,239,05,,,240,05,,,1*42

1618205716007,$BDGSV,6,6,21,245,05,,,1*40

1618205716007,$QZGSV,2,1,04,193,06,158,11,194,68,114,,195,74,068,,1*78

1618205716007,$QZGSV,2,2,04,193,06,158,18,8*7D

1618205716007,$GAGSV,3,1,07,102,58,336,,111,37,039,,124,07,119,,125,56,095,,7*71

1618205716007,$GAGSV,3,2,07,130,11,311,,136,81,138,,7*73

1618205716007,$GAGSV,3,3,07,124,07,119,18,1*72

1618205716007,$GPRMC,053516.00,A,3102.014503,N,12127.010609,E,001.1,143.4,120421,,E,A*13

1618205717005,$GPGGA,053517.00,3102.014503,N,12127.010609,E,1,5,3.5,10.7,M,,M,,*78

1618205717005,$GNGSA,A,3,1,9,16,22,208,9,193,124,193,,,,4.0,3.5,1.9*1D

1618205717005,$GPGSA,A,3,1,9,16,22,,,,,,,,,4.0,3.5,1.9,1*2A

1618205717005,$GPGSA,A,3,9,,,,,,,,,,,,4.0,3.5,1.9,8*15

1618205717005,$GLGSA,A,3,,,,,,,,,,,,,4.0,3.5,1.9,1*39

1618205717005,$BDGSA,A,3,208,,,,,,,,,,,,4.0,3.5,1.9,1*0E

1618205717005,$BDGSA,A,3,,,,,,,,,,,,,4.0,3.5,1.9,7*32

1618205717005,$GAGSA,A,3,,,,,,,,,,,,,4.0,3.5,1.9,7*32

1618205717005,$GAGSA,A,3,124,,,,,,,,,,,,4.0,3.5,1.9,1*03

1618205717005,$QZGSA,A,3,193,,,,,,,,,,,,4.0,3.5,1.9,1*02

1618205717005,$QZGSA,A,3,193,,,,,,,,,,,,4.0,3.5,1.9,8*0B

1618205717005,$GPGSV,4,1,13,01,52,178,12,07,64,263,,08,53,024,,09,06,218,22,1*66

1618205717005,$GPGSV,4,2,13,14,12,303,,16,15,100,09,17,05,248,,21,72,126,,1*63

1618205717005,$GPGSV,4,3,13,22,11,147,28,27,22,050,,28,08,301,,30,34,308,,1*66

1618205717005,$GPGSV,4,4,13,09,06,218,20,8*59

1618205717005,$GLGSV,2,1,05,77,46,127,,78,67,355,,79,16,327,,81,44,229,,1*7A

1618205717005,$GLGSV,2,2,05,88,72,357,,1*49

1618205717005,$BDGSV,6,1,21,201,46,139,,202,34,234,,203,51,200,,204,35,122,,1*7F

1618205717005,$BDGSV,6,2,21,205,13,254,,206,15,195,,207,69,015,,208,40,172,09,1*74

1618205717005,$BDGSV,6,3,21,209,27,220,,210,55,321,,213,20,189,,216,17,201,,1*7C

1618205717005,$BDGSV,6,4,21,227,66,022,,228,15,044,,230,51,247,,236,29,317,,1*72

1618205717005,$BDGSV,6,5,21,237,37,142,,238,05,,,239,05,,,240,05,,,1*42

1618205717005,$BDGSV,6,6,21,245,05,,,1*40

1618205717005,$QZGSV,2,1,04,193,06,158,12,194,68,114,,195,74,068,,1*7B

1618205717005,$QZGSV,2,2,04,193,06,158,19,8*7C

1618205717005,$GAGSV,3,1,07,102,58,336,,111,37,039,,124,07,119,,125,56,095,,7*71

1618205717005,$GAGSV,3,2,07,130,11,311,,136,81,138,,7*73

1618205717005,$GAGSV,3,3,07,124,07,119,18,1*72

1618205717005,$GPRMC,053517.00,A,3102.014503,N,12127.010609,E,000.8,143.4,120421,,E,A*1A

1618205718005,$GPGGA,053518.00,3102.014503,N,12127.010609,E,1,4,3.6,10.7,M,,M,,*75

1618205718005,$GNGSA,A,3,1,9,16,22,208,9,193,124,193,,,,14.7,3.6,14.3*16

1618205718005,$GPGSA,A,3,1,9,16,22,,,,,,,,,14.7,3.6,14.3,1*21

1618205718005,$GPGSA,A,3,9,,,,,,,,,,,,14.7,3.6,14.3,8*1E

1618205718005,$GLGSA,A,3,,,,,,,,,,,,,14.7,3.6,14.3,1*32

1618205718005,$BDGSA,A,3,208,,,,,,,,,,,,14.7,3.6,14.3,1*05

1618205718005,$BDGSA,A,3,,,,,,,,,,,,,14.7,3.6,14.3,7*39

1618205718005,$GAGSA,A,3,,,,,,,,,,,,,14.7,3.6,14.3,7*39

1618205718005,$GAGSA,A,3,124,,,,,,,,,,,,14.7,3.6,14.3,1*08

1618205718005,$QZGSA,A,3,193,,,,,,,,,,,,14.7,3.6,14.3,1*09

1618205718005,$QZGSA,A,3,193,,,,,,,,,,,,14.7,3.6,14.3,8*00

1618205718005,$GPGSV,4,1,13,01,52,178,11,07,64,263,,08,53,024,,09,06,218,23,1*64

1618205718005,$GPGSV,4,2,13,14,12,303,,16,15,100,09,17,05,248,,21,72,126,,1*63

1618205718005,$GPGSV,4,3,13,22,11,147,27,27,22,050,,28,08,301,,30,34,308,,1*69

1618205718005,$GPGSV,4,4,13,09,06,218,20,8*59

1618205718005,$GLGSV,2,1,05,77,46,127,,78,67,355,,79,16,327,,81,44,229,,1*7A

1618205718005,$GLGSV,2,2,05,88,72,357,,1*49

1618205718005,$BDGSV,6,1,21,201,46,139,,202,34,234,,203,51,200,,204,35,122,,1*7F

1618205718005,$BDGSV,6,2,21,205,13,254,,206,15,195,,207,69,016,,208,40,172,10,1*7F

1618205718005,$BDGSV,6,3,21,209,27,220,,210,55,321,,213,20,189,,216,17,201,,1*7C

1618205718005,$BDGSV,6,4,21,227,66,022,,228,15,044,,230,51,247,,236,29,317,,1*72

1618205718005,$BDGSV,6,5,21,237,37,142,,238,05,,,239,05,,,240,05,,,1*42

1618205718005,$BDGSV,6,6,21,245,05,,,1*40

1618205718005,$QZGSV,2,1,04,193,06,158,11,194,68,114,,195,74,068,,1*78

1618205718005,$QZGSV,2,2,04,193,06,158,19,8*7C

1618205718005,$GAGSV,3,1,07,102,58,336,,111,37,039,,124,07,119,,125,56,095,,7*71

1618205718005,$GAGSV,3,2,07,130,11,311,,136,81,138,,7*73

1618205718005,$GAGSV,3,3,07,124,07,119,17,1*7D

1618205718005,$GPRMC,053518.00,A,3102.014503,N,12127.010609,E,000.5,143.4,120421,,E,A*18

1618205719010,$GPGGA,053519.00,3102.014503,N,12127.010609,E,1,5,3.5,10.7,M,,M,,*76

1618205719010,$GNGSA,A,3,1,9,16,22,208,9,193,124,193,,,,4.0,3.5,1.9*1D

1618205719010,$GPGSA,A,3,1,9,16,22,,,,,,,,,4.0,3.5,1.9,1*2A

1618205719010,$GPGSA,A,3,9,,,,,,,,,,,,4.0,3.5,1.9,8*15

1618205719010,$GLGSA,A,3,,,,,,,,,,,,,4.0,3.5,1.9,1*39

1618205719010,$BDGSA,A,3,208,,,,,,,,,,,,4.0,3.5,1.9,1*0E

1618205719010,$BDGSA,A,3,,,,,,,,,,,,,4.0,3.5,1.9,7*32

1618205719010,$GAGSA,A,3,,,,,,,,,,,,,4.0,3.5,1.9,7*32

1618205719010,$GAGSA,A,3,124,,,,,,,,,,,,4.0,3.5,1.9,1*03

1618205719010,$QZGSA,A,3,193,,,,,,,,,,,,4.0,3.5,1.9,1*02

1618205719010,$QZGSA,A,3,193,,,,,,,,,,,,4.0,3.5,1.9,8*0B

1618205719010,$GPGSV,4,1,13,01,52,178,12,07,64,263,,08,53,024,,09,06,218,23,1*67

1618205719010,$GPGSV,4,2,13,14,12,303,,16,15,100,10,17,05,248,,21,72,126,,1*6B

1618205719010,$GPGSV,4,3,13,22,11,147,26,27,22,050,,28,08,301,,30,34,308,,1*68

1618205719010,$GPGSV,4,4,13,09,06,218,20,8*59

1618205719010,$GLGSV,2,1,05,77,46,127,,78,67,355,,79,17,327,,81,44,229,,1*7B

1618205719010,$GLGSV,2,2,05,88,72,357,,1*49

1618205719010,$BDGSV,6,1,21,201,46,139,,202,34,234,,203,51,200,,204,35,122,,1*7F

1618205719010,$BDGSV,6,2,21,205,13,254,,206,15,195,,207,69,016,,208,40,172,11,1*7E

1618205719010,$BDGSV,6,3,21,209,27,220,,210,55,321,,213,20,189,,216,17,201,,1*7C

1618205719010,$BDGSV,6,4,21,227,66,022,,228,15,044,,230,51,247,,236,29,317,,1*72

1618205719010,$BDGSV,6,5,21,237,37,142,,238,05,,,239,05,,,240,05,,,1*42

1618205719010,$BDGSV,6,6,21,245,05,,,1*40

1618205719010,$QZGSV,2,1,04,193,06,158,10,194,68,114,,195,74,068,,1*79

1618205719010,$QZGSV,2,2,04,193,06,158,19,8*7C

1618205719010,$GAGSV,3,1,07,102,58,336,,111,37,039,,124,07,119,,125,56,095,,7*71

1618205719010,$GAGSV,3,2,07,130,11,311,,136,81,138,,7*73

1618205719010,$GAGSV,3,3,07,124,07,119,17,1*7D

1618205719010,$GPRMC,053519.00,A,3102.014503,N,12127.010609,E,000.4,143.4,120421,,E,A*18

1618205720007,$GPGGA,053520.00,3102.014503,N,12127.010609,E,1,6,3.3,10.7,M,,M,,*79

1618205720007,$GNGSA,A,3,1,9,16,22,208,9,193,124,193,,,,3.7,3.3,1.6*14

1618205720007,$GPGSA,A,3,1,9,16,22,,,,,,,,,3.7,3.3,1.6,1*23

1618205720007,$GPGSA,A,3,9,,,,,,,,,,,,3.7,3.3,1.6,8*1C

1618205720007,$GLGSA,A,3,,,,,,,,,,,,,3.7,3.3,1.6,1*30

1618205720007,$BDGSA,A,3,208,,,,,,,,,,,,3.7,3.3,1.6,1*07

1618205720007,$BDGSA,A,3,,,,,,,,,,,,,3.7,3.3,1.6,7*3B

1618205720007,$GAGSA,A,3,,,,,,,,,,,,,3.7,3.3,1.6,7*3B

1618205720007,$GAGSA,A,3,124,,,,,,,,,,,,3.7,3.3,1.6,1*0A

1618205720007,$QZGSA,A,3,193,,,,,,,,,,,,3.7,3.3,1.6,1*0B

1618205720007,$QZGSA,A,3,193,,,,,,,,,,,,3.7,3.3,1.6,8*02

1618205720007,$GPGSV,4,1,13,01,52,178,12,07,64,263,,08,53,024,,09,06,218,23,1*67

1618205720007,$GPGSV,4,2,13,14,12,303,,16,15,100,09,17,05,248,,21,72,126,,1*63

1618205720007,$GPGSV,4,3,13,22,11,147,28,27,22,050,,28,08,301,,30,34,308,,1*66

1618205720007,$GPGSV,4,4,13,09,06,218,20,8*59

1618205720007,$GLGSV,2,1,05,77,46,127,,78,67,355,,79,17,327,,81,44,229,,1*7B

1618205720007,$GLGSV,2,2,05,88,72,357,,1*49

1618205720007,$BDGSV,7,1,25,201,46,139,,202,34,234,,203,51,200,,204,35,122,,1*7A

1618205720007,$BDGSV,7,2,25,205,13,254,,206,15,195,,207,69,016,,208,40,172,12,1*78

1618205720007,$BDGSV,7,3,25,209,27,220,,210,55,321,,213,20,189,,216,17,201,,1*79

1618205720007,$BDGSV,7,4,25,227,66,022,,228,15,044,,230,51,247,,236,29,317,,1*77

1618205720007,$BDGSV,7,5,25,237,37,142,,238,05,,,239,05,,,240,05,,,1*47

1618205720007,$BDGSV,7,6,25,241,05,,,242,05,,,243,05,,,245,05,,,1*76

1618205720007,$BDGSV,7,7,25,246,05,,,1*47

1618205720007,$QZGSV,2,1,04,193,06,158,12,194,68,114,,195,74,068,,1*7B

1618205720007,$QZGSV,2,2,04,193,06,158,19,8*7C

1618205720007,$GAGSV,3,1,07,102,58,336,,111,37,039,,124,07,119,,125,56,095,,7*71

1618205720007,$GAGSV,3,2,07,130,11,311,,136,81,138,,7*73

1618205720007,$GAGSV,3,3,07,124,07,119,17,1*7D

1618205720007,$GPRMC,053520.00,A,3102.014503,N,12127.010609,E,000.3,143.4,120421,,E,A*15

1618205721004,$GPGGA,053521.00,3102.014503,N,12127.010609,E,1,5,3.5,10.7,M,,M,,*7D

1618205721004,$GNGSA,A,3,1,9,16,22,208,9,193,124,193,,,,4.1,3.5,2.2*14

1618205721004,$GPGSA,A,3,1,9,16,22,,,,,,,,,4.1,3.5,2.2,1*23

1618205721004,$GPGSA,A,3,9,,,,,,,,,,,,4.1,3.5,2.2,8*1C

1618205721004,$GLGSA,A,3,,,,,,,,,,,,,4.1,3.5,2.2,1*30

1618205721004,$BDGSA,A,3,208,,,,,,,,,,,,4.1,3.5,2.2,1*07

1618205721004,$BDGSA,A,3,,,,,,,,,,,,,4.1,3.5,2.2,7*3B

1618205721004,$GAGSA,A,3,,,,,,,,,,,,,4.1,3.5,2.2,7*3B

1618205721004,$GAGSA,A,3,124,,,,,,,,,,,,4.1,3.5,2.2,1*0A

1618205721004,$QZGSA,A,3,193,,,,,,,,,,,,4.1,3.5,2.2,1*0B

1618205721004,$QZGSA,A,3,193,,,,,,,,,,,,4.1,3.5,2.2,8*02

1618205721004,$GPGSV,4,1,13,01,52,178,11,07,64,263,,08,53,024,,09,06,218,21,1*66

1618205721004,$GPGSV,4,2,13,14,12,303,,16,15,100,10,17,05,248,,21,72,126,,1*6B

1618205721004,$GPGSV,4,3,13,22,11,147,27,27,22,050,,28,08,301,,30,34,308,,1*69

1618205721004,$GPGSV,4,4,13,09,06,218,20,8*59

1618205721004,$GLGSV,2,1,05,77,46,127,,78,67,355,,79,17,327,,81,44,229,,1*7B

1618205721004,$GLGSV,2,2,05,88,72,357,,1*49

1618205721004,$BDGSV,7,1,25,201,46,139,,202,34,234,,203,51,200,,204,35,122,,1*7A

1618205721004,$BDGSV,7,2,25,205,13,254,,206,15,195,,207,69,016,,208,40,172,12,1*78

1618205721004,$BDGSV,7,3,25,209,27,220,,210,55,321,,213,20,189,,216,17,201,,1*79

1618205721004,$BDGSV,7,4,25,227,66,022,,228,15,044,,230,51,247,,236,29,317,,1*77

1618205721004,$BDGSV,7,5,25,237,37,142,,238,05,,,239,05,,,240,05,,,1*47

1618205721004,$BDGSV,7,6,25,241,05,,,242,05,,,243,05,,,245,05,,,1*76

1618205721004,$BDGSV,7,7,25,246,05,,,1*47

1618205721004,$QZGSV,2,1,04,193,06,158,13,194,68,114,,195,74,068,,1*7A

1618205721004,$QZGSV,2,2,04,193,06,158,20,8*76

1618205721004,$GAGSV,3,1,07,102,58,336,,111,37,039,,124,07,119,,125,56,095,,7*71

1618205721004,$GAGSV,3,2,07,130,11,311,,136,81,138,,7*73

1618205721004,$GAGSV,3,3,07,124,07,119,17,1*7D

1618205721004,$GPRMC,053521.00,A,3102.014503,N,12127.010609,E,000.2,143.4,120421,,E,A*15

1618205722004,$GPGGA,053522.00,3102.014503,N,12127.010609,E,1,5,3.5,10.7,M,,M,,*7E

1618205722004,$GNGSA,A,3,1,9,16,22,208,9,124,193,124,193,,,4.1,3.5,2.2*23

1618205722004,$GPGSA,A,3,1,9,16,22,,,,,,,,,4.1,3.5,2.2,1*23

1618205722004,$GPGSA,A,3,9,,,,,,,,,,,,4.1,3.5,2.2,8*1C

1618205722004,$GLGSA,A,3,,,,,,,,,,,,,4.1,3.5,2.2,1*30

1618205722004,$BDGSA,A,3,208,,,,,,,,,,,,4.1,3.5,2.2,1*07

1618205722004,$BDGSA,A,3,,,,,,,,,,,,,4.1,3.5,2.2,7*3B

1618205722004,$GAGSA,A,3,124,,,,,,,,,,,,4.1,3.5,2.2,7*0C

1618205722004,$GAGSA,A,3,124,,,,,,,,,,,,4.1,3.5,2.2,1*0A

1618205722004,$QZGSA,A,3,193,,,,,,,,,,,,4.1,3.5,2.2,1*0B

1618205722004,$QZGSA,A,3,193,,,,,,,,,,,,4.1,3.5,2.2,8*02

1618205722004,$GPGSV,4,1,13,01,52,178,10,07,64,263,,08,53,024,,09,06,218,22,1*64

1618205722004,$GPGSV,4,2,13,14,12,303,,16,15,100,11,17,05,248,,21,72,126,,1*6A

1618205722004,$GPGSV,4,3,13,22,11,147,28,27,22,050,,28,08,301,,30,34,308,,1*66

1618205722004,$GPGSV,4,4,13,09,06,218,20,8*59

1618205722004,$GLGSV,2,1,05,77,46,127,,78,67,355,,79,17,328,,81,44,229,,1*74

1618205722004,$GLGSV,2,2,05,88,72,357,,1*49

1618205722004,$BDGSV,7,1,25,201,46,139,,202,34,234,,203,51,200,,204,35,122,,1*7A

1618205722004,$BDGSV,7,2,25,205,13,254,,206,15,195,,207,69,016,,208,40,172,13,1*79

1618205722004,$BDGSV,7,3,25,209,27,220,,210,55,321,,213,20,189,,216,17,201,,1*79

1618205722004,$BDGSV,7,4,25,227,66,022,,228,15,044,,230,51,247,,236,29,317,,1*77

1618205722004,$BDGSV,7,5,25,237,37,142,,238,05,,,239,05,,,240,05,,,1*47

1618205722004,$BDGSV,7,6,25,241,05,,,242,05,,,243,05,,,245,05,,,1*76

1618205722004,$BDGSV,7,7,25,246,05,,,1*47

1618205722004,$QZGSV,2,1,04,193,06,158,12,194,68,114,,195,74,068,,1*7B

1618205722004,$QZGSV,2,2,04,193,06,158,20,8*76

1618205722004,$GAGSV,3,1,07,102,58,336,,111,37,039,,124,07,119,18,125,56,095,,7*78

1618205722004,$GAGSV,3,2,07,130,11,311,,136,81,138,,7*73

1618205722004,$GAGSV,3,3,07,124,07,119,17,1*7D

1618205722004,$GPRMC,053522.00,A,3102.014503,N,12127.010609,E,000.1,143.4,120421,,E,A*15

1618205723006,$GPGGA,053523.00,3102.014503,N,12127.010609,E,1,5,3.5,10.7,M,,M,,*7F

1618205723006,$GNGSA,A,3,1,9,16,22,208,9,124,193,124,193,,,4.1,3.5,2.2*23

1618205723006,$GPGSA,A,3,1,9,16,22,,,,,,,,,4.1,3.5,2.2,1*23

1618205723006,$GPGSA,A,3,9,,,,,,,,,,,,4.1,3.5,2.2,8*1C

1618205723006,$GLGSA,A,3,,,,,,,,,,,,,4.1,3.5,2.2,1*30

1618205723006,$BDGSA,A,3,208,,,,,,,,,,,,4.1,3.5,2.2,1*07

1618205723006,$BDGSA,A,3,,,,,,,,,,,,,4.1,3.5,2.2,7*3B

1618205723006,$GAGSA,A,3,124,,,,,,,,,,,,4.1,3.5,2.2,7*0C

1618205723006,$GAGSA,A,3,124,,,,,,,,,,,,4.1,3.5,2.2,1*0A

1618205723006,$QZGSA,A,3,193,,,,,,,,,,,,4.1,3.5,2.2,1*0B

1618205723006,$QZGSA,A,3,193,,,,,,,,,,,,4.1,3.5,2.2,8*02

1618205723006,$GPGSV,4,1,13,01,52,178,09,07,64,263,,08,53,024,,09,06,218,23,1*6D

1618205723006,$GPGSV,4,2,13,14,12,303,,16,15,100,10,17,05,248,,21,72,126,,1*6B

1618205723006,$GPGSV,4,3,13,22,11,147,27,27,22,050,,28,08,301,,30,34,308,,1*69

1618205723006,$GPGSV,4,4,13,09,06,218,19,8*53

1618205723006,$GLGSV,2,1,05,77,46,127,,78,67,355,,79,17,328,,81,44,229,,1*74

1618205723006,$GLGSV,2,2,05,88,72,357,,1*49

1618205723006,$BDGSV,7,1,25,201,46,139,,202,34,234,,203,51,200,,204,35,122,,1*7A

1618205723006,$BDGSV,7,2,25,205,13,254,,206,15,195,,207,69,016,,208,40,172,13,1*79

1618205723006,$BDGSV,7,3,25,209,27,220,,210,55,321,,213,20,189,,216,17,201,,1*79

1618205723006,$BDGSV,7,4,25,227,66,022,,228,15,044,,230,51,247,,236,29,317,,1*77

1618205723006,$BDGSV,7,5,25,237,37,142,,238,05,,,239,05,,,240,05,,,1*47

1618205723006,$BDGSV,7,6,25,241,05,,,242,05,,,243,05,,,245,05,,,1*76

1618205723006,$BDGSV,7,7,25,246,05,,,1*47

1618205723006,$QZGSV,2,1,04,193,06,158,13,194,68,114,,195,74,068,,1*7A

1618205723006,$QZGSV,2,2,04,193,06,158,21,8*77

1618205723006,$GAGSV,3,1,07,102,58,336,,111,37,039,,124,07,119,16,125,56,095,,7*76

1618205723006,$GAGSV,3,2,07,130,11,311,,136,81,138,,7*73

1618205723006,$GAGSV,3,3,07,124,07,119,18,1*72

1618205723006,$GPRMC,053523.00,A,3102.014503,N,12127.010609,E,000.1,143.4,120421,,E,A*14

1618205724004,$GPGGA,053524.00,3102.014503,N,12127.010609,E,1,5,3.5,10.7,M,,M,,*78

1618205724004,$GNGSA,A,3,1,9,16,22,208,9,124,193,124,193,,,4.1,3.5,2.2*23

1618205724004,$GPGSA,A,3,1,9,16,22,,,,,,,,,4.1,3.5,2.2,1*23

1618205724004,$GPGSA,A,3,9,,,,,,,,,,,,4.1,3.5,2.2,8*1C

1618205724004,$GLGSA,A,3,,,,,,,,,,,,,4.1,3.5,2.2,1*30

1618205724004,$BDGSA,A,3,208,,,,,,,,,,,,4.1,3.5,2.2,1*07

1618205724004,$BDGSA,A,3,,,,,,,,,,,,,4.1,3.5,2.2,7*3B

1618205724004,$GAGSA,A,3,124,,,,,,,,,,,,4.1,3.5,2.2,7*0C

1618205724004,$GAGSA,A,3,124,,,,,,,,,,,,4.1,3.5,2.2,1*0A

1618205724004,$QZGSA,A,3,193,,,,,,,,,,,,4.1,3.5,2.2,1*0B

1618205724004,$QZGSA,A,3,193,,,,,,,,,,,,4.1,3.5,2.2,8*02

1618205724004,$GPGSV,4,1,13,01,52,178,09,07,64,263,,08,53,024,,09,06,218,22,1*6C

1618205724004,$GPGSV,4,2,13,14,12,303,,16,15,100,09,17,05,248,,21,72,126,,1*63

1618205724004,$GPGSV,4,3,13,22,11,147,26,27,22,050,,28,08,301,,30,34,308,,1*68

1618205724004,$GPGSV,4,4,13,09,06,218,19,8*53

1618205724004,$GLGSV,2,1,05,77,46,127,,78,67,355,,79,17,328,,81,44,229,,1*74

1618205724004,$GLGSV,2,2,05,88,72,357,,1*49

1618205724004,$BDGSV,7,1,25,201,46,139,,202,34,234,,203,51,200,,204,35,122,,1*7A

1618205724004,$BDGSV,7,2,25,205,13,254,,206,15,195,,207,69,016,,208,40,172,13,1*79

1618205724004,$BDGSV,7,3,25,209,27,220,,210,55,321,,213,20,189,,216,17,201,,1*79

1618205724004,$BDGSV,7,4,25,227,66,022,,228,15,044,,230,51,247,,236,29,317,,1*77

1618205724004,$BDGSV,7,5,25,237,37,142,,238,05,,,239,05,,,240,05,,,1*47

1618205724004,$BDGSV,7,6,25,241,05,,,242,05,,,243,05,,,245,05,,,1*76

1618205724004,$BDGSV,7,7,25,246,05,,,1*47

1618205724004,$QZGSV,2,1,04,193,06,158,13,194,68,114,,195,74,068,,1*7A

1618205724004,$QZGSV,2,2,04,193,06,158,20,8*76

1618205724004,$GAGSV,3,1,07,102,58,336,,111,37,039,,124,07,119,16,125,56,095,,7*76

1618205724004,$GAGSV,3,2,07,130,11,311,,136,81,138,,7*73

1618205724004,$GAGSV,3,3,07,124,07,119,19,1*73

1618205724004,$GPRMC,053524.00,A,3102.014503,N,12127.010609,E,000.1,143.4,120421,,E,A*13

1618205725008,$GPGGA,053525.00,3102.014503,N,12127.010609,E,1,5,3.5,10.7,M,,M,,*79

1618205725008,$GNGSA,A,3,1,9,16,22,208,9,124,193,124,193,,,4.1,3.5,2.2*23

1618205725008,$GPGSA,A,3,1,9,16,22,,,,,,,,,4.1,3.5,2.2,1*23

1618205725008,$GPGSA,A,3,9,,,,,,,,,,,,4.1,3.5,2.2,8*1C

1618205725008,$GLGSA,A,3,,,,,,,,,,,,,4.1,3.5,2.2,1*30

1618205725008,$BDGSA,A,3,208,,,,,,,,,,,,4.1,3.5,2.2,1*07

1618205725008,$BDGSA,A,3,,,,,,,,,,,,,4.1,3.5,2.2,7*3B

1618205725008,$GAGSA,A,3,124,,,,,,,,,,,,4.1,3.5,2.2,7*0C

1618205725008,$GAGSA,A,3,124,,,,,,,,,,,,4.1,3.5,2.2,1*0A

1618205725008,$QZGSA,A,3,193,,,,,,,,,,,,4.1,3.5,2.2,1*0B

1618205725008,$QZGSA,A,3,193,,,,,,,,,,,,4.1,3.5,2.2,8*02

1618205725008,$GPGSV,4,1,13,01,52,178,09,07,64,263,,08,53,024,,09,06,218,22,1*6C

1618205725008,$GPGSV,4,2,13,14,12,303,,16,15,100,09,17,05,248,,21,72,126,,1*63

1618205725008,$GPGSV,4,3,13,22,11,147,27,27,22,050,,28,08,301,,30,34,308,,1*69

1618205725008,$GPGSV,4,4,13,09,06,218,18,8*52

1618205725008,$GLGSV,2,1,05,77,46,127,,78,67,355,,79,17,328,,81,44,229,,1*74

1618205725008,$GLGSV,2,2,05,88,72,357,,1*49

1618205725008,$BDGSV,7,1,25,201,46,139,,202,34,234,,203,51,200,,204,35,122,,1*7A

1618205725008,$BDGSV,7,2,25,205,13,254,,206,15,195,,207,69,016,,208,40,172,13,1*79

1618205725008,$BDGSV,7,3,25,209,27,220,,210,55,321,,213,20,189,,216,17,201,,1*79

1618205725008,$BDGSV,7,4,25,227,66,022,,228,15,044,,230,51,247,,236,29,317,,1*77

1618205725008,$BDGSV,7,5,25,237,37,142,,238,05,,,239,05,,,240,05,,,1*47

1618205725008,$BDGSV,7,6,25,241,05,,,242,05,,,243,05,,,245,05,,,1*76

1618205725008,$BDGSV,7,7,25,246,05,,,1*47

1618205725008,$QZGSV,2,1,04,193,06,158,13,194,68,114,,195,74,068,,1*7A

1618205725008,$QZGSV,2,2,04,193,06,158,20,8*76

1618205725008,$GAGSV,3,1,07,102,58,336,,111,37,039,,124,07,119,15,125,56,095,,7*75

1618205725008,$GAGSV,3,2,07,130,11,311,,136,81,138,,7*73

1618205725008,$GAGSV,3,3,07,124,07,119,20,1*79

1618205725008,$GPRMC,053525.00,A,3102.014503,N,12127.010609,E,000.0,143.4,120421,,E,A*13

1618205726005,$GPGGA,053526.00,3102.014503,N,12127.010609,E,1,5,3.5,10.7,M,,M,,*7A

1618205726005,$GNGSA,A,3,9,16,22,208,9,124,193,124,193,,,,4.1,3.5,2.2*12

1618205726005,$GPGSA,A,3,9,16,22,,,,,,,,,,4.1,3.5,2.2,1*12

1618205726005,$GPGSA,A,3,9,,,,,,,,,,,,4.1,3.5,2.2,8*1C

1618205726005,$GLGSA,A,3,,,,,,,,,,,,,4.1,3.5,2.2,1*30

1618205726005,$BDGSA,A,3,208,,,,,,,,,,,,4.1,3.5,2.2,1*07

1618205726005,$BDGSA,A,3,,,,,,,,,,,,,4.1,3.5,2.2,7*3B

1618205726005,$GAGSA,A,3,124,,,,,,,,,,,,4.1,3.5,2.2,7*0C

1618205726005,$GAGSA,A,3,124,,,,,,,,,,,,4.1,3.5,2.2,1*0A

1618205726005,$QZGSA,A,3,193,,,,,,,,,,,,4.1,3.5,2.2,1*0B

1618205726005,$QZGSA,A,3,193,,,,,,,,,,,,4.1,3.5,2.2,8*02

