     3.03           OBSERVATION DATA    M: Mixed            RINEX VERSION / TYPE
rinex ON            NSL                 20210412 133452 UTC PGM / RUN BY / DATE
                                                            MARKER NAME
                                                            MARKER TYPE
rinex ON User                                               OBSERVER / AGENCY
 -2853635.8493  4666498.2509  3269415.9061                  APPROX POSITION XYZ
XXXXXXXX            HUAWEI              ELE-AL00            REC # / TYPE / VERS
XXXXXXXX            ELE-AL00                                ANT # / TYPE
        0.0000        0.0000        0.0000                  APPROX POSITION XYZ
        0.0000        0.0000        0.0000                  ANTENNA: DELTA H/E/N
G    8 C1C L1C D1C S1C C5X L5X D5X S5X                      SYS / # / OBS TYPES
R    4 C1C L1C D1C S1C                                      SYS / # / OBS TYPES
E    8 C1C L1C D1C S1C C5X L5X D5X S5X                      SYS / # / OBS TYPES
C    4 C2I L2I D2I S2I                                      SYS / # / OBS TYPES
J    8 C1C L1C D1C S1C C5X L5X D5X S5X                      SYS / # / OBS TYPES
  2021    04    12    05    35   30.0000010     GPS         TIME OF FIRST OBS
                                                            END OF HEADER
> 2021 04 12 05 35 30.0000010  0  7
G22  24540028.192      -10870.105        2717.821          28.000                                                            
G09  25176897.097   -28276822.561       -2222.204          20.000    25176908.789           0.000       -1657.112          23.000
G01  20799317.732      -11309.327        2819.600          14.000                                                            
G16  24493754.926   -28276715.609       -2249.055          13.000                                                            
C08  38205076.876       -7168.543        1795.945          15.000                                                            
J01  38032134.401        -636.111         164.237          15.000                                                            
E24  28339072.568  -150851211.982       -1486.920          18.000                                                            
> 2021 04 12 05 35 31.0000010  0  7
G22  24539511.350      -13586.171        2713.972          28.000                                                            
G09  25177318.905   -35346028.816       -2223.908          20.000    25177332.395           0.040       -1660.572          19.000
G01  20798782.902      -14129.441        2823.031          14.000                                                            
G16  24494184.229   -35345893.966       -2253.635          12.000                                                            
C08  38204736.311       -8964.972        1797.078          15.000                                                            
J01  38032107.120        -799.758         161.909          15.000    38032111.617           0.000         125.758          21.000
E24  28339450.007  -188564014.294       -1487.645          18.000                                                            
> 2021 04 12 05 35 32.0000010  0  7
G22  24538995.107      -16300.017        2714.127          27.000                                                            
G09  25177741.312   -42415234.954       -2222.496          21.000    25177754.503   -37712629.696       -1659.083          20.000
G01  20798249.272      -16954.038        2826.532          13.000                                                            
G16  24494613.232   -42415071.741       -2249.440          11.000                                                            
C08  38204392.150      -10766.728        1802.326          14.000                                                            
J01  38032079.839        -960.226         161.121          14.000    38032069.646           0.375         118.373          17.000
E24  28339828.345  -226276816.086       -1487.673          18.000                                                            
> 2021 04 12 05 35 33.0000010  0  7
G22  24538478.265      -19014.762        2714.821          28.000                                                            
G09  25178167.018   -49484442.262       -2221.997          24.000    25178176.311   -75425260.807       -1658.359          21.000
G01  20797712.643      -19782.890        2831.310          12.000                                                            
G16  24495042.235   -49484251.457       -2249.694          11.000                                                            
C08  38204047.089      -12569.676        1799.022          12.000                                                            
J01  38032053.157       -1123.956         164.217          13.000    38032040.866        -118.116         118.418          19.000
E24  28340206.983  -263989617.466       -1488.289          18.000                                                            
> 2021 04 12 05 35 34.0000010  0  7
G22  24537961.123      -21728.858        2714.024          27.000                                                            
G09  25178592.723   -56553648.785       -2223.488          24.000    25178598.419  -113137891.877       -1659.055          19.000
G01  20797176.614      -22618.409        2838.524          12.000                                                            
G16  24495474.836   -56553427.270       -2254.901          11.000                                                            
C08  38203703.227      -14368.775        1798.281          12.000                                                            
J01  38032024.377       -1287.130         162.155          11.000    38032011.786        -236.151         117.611          18.000
E24  28340585.921  -301702419.266       -1487.180          18.000                                                            
> 2021 04 12 05 35 35.0000010  0  7
G22  24537445.180      -24442.523        2713.310          28.000                                                            
G09  25179014.531   -63622856.436       -2220.404          22.000    25179020.227  -150850522.366       -1659.192          20.000
G01  20796640.885      -25455.526        2835.749          12.000                                                            
G16  24495909.834   -63622599.204       -2259.344           9.000                                                            
C08  38203359.065      -16166.187        1795.170           9.000                                                            
J01  38031995.597       -1449.987         161.500          12.000    38031982.706        -353.603         117.417          19.000
E24  28340964.858  -339415221.340       -1487.641          18.000                                                            
> 2021 04 12 05 35 36.0000010  0  7
G22  24536929.537      -27157.347        2715.485          27.000                                                            
G09  25179437.838   -70692064.789       -2219.827          23.000    25179442.635  -188563153.742       -1657.607          20.000
G01  20796103.957      -28294.536        2841.886          11.000                                                            
G16  24496344.534   -70691766.147       -2263.525           9.000                                                            
C08  38203015.203      -17962.577        1795.872          10.000                                                            
J01  38031962.920       -1612.039         162.549          11.000    38031953.027        -471.015         118.237          19.000
E24  28341344.695  -377128022.949       -1487.680          17.000                                                            
> 2021 04 12 05 35 37.0000010  0  7
G22  24536412.995      -29873.882        2716.569          26.000                                                            
G09  25179861.744   -77761274.732       -2218.359          23.000    25179864.443  -226275785.798       -1657.618          20.000
G01  20795563.731      -31139.078        2845.450          12.000                                                            
G16  24496775.635   -77760932.632       -2262.062          10.000                                                            
C08  38202672.240      -19758.214        1793.154          11.000                                                            
J01  38031932.341       -1775.581         161.819          10.000    38031922.748        -589.499         118.865          19.000
E24  28341723.633  -414840824.594       -1488.419          17.000                                                            
> 2021 04 12 05 35 38.0000010  0  7
G22  24535897.352      -32590.517        2716.406          28.000                                                            
G09  25180282.953   -84830484.981       -2218.596          23.000    25180286.550  -263988417.216       -1658.540          20.000
G01  20795019.008      -33987.544        2850.946          12.000                                                            
G16  24497208.236   -84830098.158       -2265.143           9.000                                                            
C08  38202328.678      -21550.690        1794.318          12.000                                                            
J01  38031904.161       -1937.989         161.531          12.000    38031893.668        -707.945         117.778          19.000
E24  28342102.870  -452553625.493       -1489.205          17.000                                                            
> 2021 04 12 05 35 39.0000010  0  7
G22  24535379.910      -35306.028        2714.643          27.000                                                            
G09  25180706.560   -91899695.093       -2219.793          21.000    25180708.958  -301701048.090       -1659.034          20.000
G01  20794476.983      -36839.167        2852.553          11.000                                                            
G16  24497640.237   -91899262.727       -2264.617          10.000                                                            
C08  38201986.915      -23342.078        1786.941          12.000                                                            
J01  38031874.181       -2099.223         160.590          13.000    38031863.689        -825.918         118.244          20.000
E24  28342483.307  -490266426.180       -1488.705          17.000                                                            
> 2021 04 12 05 35 40.0000010  0  7
G22  24534862.168      -38020.162        2713.825          28.000                                                            
G09  25181130.466   -98968902.312       -2222.354          22.000    25181133.164  -339413675.002       -1663.823          20.000
G01  20793935.258      -39695.872        2860.188          10.000                                                            
G16  24498076.135   -98968424.551       -2268.653          11.000                                                            
C08  38201646.051      -25126.767        1783.243          13.000                                                            
J01  38031845.401       -2257.611         155.327          12.000    38031834.009        -944.185         118.354          20.000
E24  28342840.660           0.000       -1994.186          18.000    28342862.844  -527979226.704       -1490.013          17.000
> 2021 04 12 05 35 41.0000010  0  7
G22  24534346.226      -40734.108        2713.638          27.000                                                            
G09  25181551.974  -106038109.821       -2221.843          23.000    25181556.171  -377126301.990       -1661.681          19.000
G01  20793387.837      -42560.765        2868.405           9.000                                                            
G16  24498513.832  -106037587.278       -2266.677          10.000                                                            
C08  38201305.487      -26909.134        1782.735          13.000                                                            
J01  38031820.519       -2412.876         154.812          13.000    38031803.730       -1062.705         118.211          21.000
E24  28343224.694           0.514       -1993.742          16.000    28343243.581  -565692025.846       -1490.874          18.000
> 2021 04 12 05 35 42.0000010  0  7
G22  24533828.184      -43446.444        2710.608          26.000                                                            
G09  25181974.981  -113107315.376       -2224.544          22.000    25181979.179  -414838932.948       -1656.573          19.000
G01  20792839.817      -45431.542        2872.681           9.000                                                            
G16  24498944.034  -113106754.549       -2260.884           9.000                                                            
C08  38200967.021      -28690.379        1778.587          13.000                                                            
J01  38031790.239       -2568.356         155.442          13.000    38031774.051       -1180.187         117.181          20.000
E24  28343621.019    -7069437.123       -1992.208          16.000    28343624.617  -603404823.846       -1492.225          19.000
> 2021 04 12 05 35 43.0000010  0  7
G22  24533311.942      -46156.997        2710.354          27.000                                                            
G09  25182397.389  -120176518.392       -2226.805          22.000    25182402.486  -452551565.682       -1658.738          18.000
G01  20792295.993      -48303.802        2874.187           9.000                                                            
G16  24499375.136  -120175927.081       -2255.212           9.000                                                            
C08  38200625.857      -30471.434        1783.965          13.000                                                            
J01  38031761.160       -2721.151         150.711          13.000    38031744.971       -1297.087         116.960          20.000
E24  28343991.563   -14138879.185       -1984.047          15.000    28344005.653  -641117620.973       -1492.820          20.000
> 2021 04 12 05 35 44.0000010  0  6
G22  24532797.198      -48867.277        2709.764          26.000                                                            
G09  25182818.597  -127245722.703       -2223.746          21.000    25182825.493  -490264195.006       -1662.384          18.000
G16  24499806.837  -127245101.359       -2253.369           9.000                                                            
C08  38200283.494      -32255.700        1785.244          14.000                                                            
J01  38031730.881       -2870.718         149.279          13.000    38031715.891       -1413.711         116.282          20.000
E24  28344369.901   -21208321.719       -1989.992          12.000    28344386.390  -678830417.841       -1492.786          20.000
> 2021 04 12 05 35 45.0000010  0  5
G22  24532280.356      -51577.375        2710.805          26.000                                                            
G09  25183239.206  -134314927.401       -2225.357          21.000    25183250.598  -527976821.537       -1663.392          18.000
C08  38199940.531      -34040.090        1783.638          14.000                                                            
J01  38031698.203       -3019.604         149.068          13.000    38031687.111       -1529.318         115.613          19.000
E24  28344750.038   -28277759.459       -1990.350          12.000    28344767.126  -716543214.244       -1493.360          20.000
> 2021 04 12 05 35 46.0000010  0  5
G22  24531764.413      -54289.095        2712.658          27.000                                                            
G09  25183661.314  -141384131.801       -2223.822          21.000    25183673.006  -565689449.262       -1657.740          19.000
C08  38199597.569      -35824.432        1784.363          14.000                                                            
J01  38031667.025       -3169.593         151.170          13.000    38031658.031       -1645.813         117.684          18.000
E24  28345128.376   -35347198.331       -1993.811          12.000    28345147.862  -754256010.717       -1492.114          20.000
> 2021 04 12 05 35 47.0000010  0  5
G22  24531248.170      -57003.465        2714.543          26.000                                                            
G09  25184083.422  -148453338.801       -2221.486          24.000    25184094.814  -603402082.418       -1656.175          19.000
C08  38199255.206      -37612.166        1789.526          15.000                                                            
J01  38031637.046       -3322.494         154.188          11.000    38031628.052       -1764.037         118.588          19.000
E24  28345505.815   -42416633.143       -1994.795           9.000    28345528.599  -791968808.975       -1490.937          20.000
> 2021 04 12 05 35 48.0000010  0  5
G22  24530731.328      -59718.558        2714.943          27.000                                                            
G09  25184504.930  -155522547.260       -2220.121          24.000    25184517.222  -641114718.003       -1654.576          19.000
C08  38198911.944      -39399.270        1784.860          15.000                                                            
J01  38031609.165       -3476.507         155.056          11.000    38031597.473       -1882.470         118.162          19.000
E24  28345885.652   -49486068.159       -1993.808           9.000    28345908.736  -829681607.895       -1490.617          20.000
> 2021 04 12 05 35 49.0000010  0  5
G22  24530213.886      -62434.025        2715.399          27.000                                                            
G09  25184929.136  -162591756.484       -2219.559          25.000    25184939.030  -678827352.298       -1657.849          19.000
C08  38198568.082      -41187.174        1789.558          15.000                                                            
J01  38031579.485       -3633.274         157.764          11.000    38031567.494       -2000.696         118.075          19.000
E24  28346265.789   -56555502.544       -1997.369          12.000    28346288.873  -867394406.636       -1491.387          20.000
> 2021 04 12 05 35 50.0000010  0  6
G22  24529698.843      -65149.451        2714.608          27.000                                                            
G09  25185351.544  -169660965.266       -2222.354          24.000    25185364.135  -716539983.648       -1657.856          19.000
G01  20788574.369           0.000        2829.496          21.000                                                            
C08  38198224.220      -42977.829        1791.079          15.000                                                            
J01  38031548.907       -3792.425         159.883          12.000    38031536.915       -2118.399         117.686          19.000
E24  28346646.525   -63624933.870       -1998.199          12.000    28346668.110  -905107203.821       -1491.860          20.000
> 2021 04 12 05 35 51.0000010  0  6
G22  24529183.200      -67863.968        2713.434          27.000                                                            
G09  25185773.952  -176730172.004       -2222.760          24.000    25185787.142  -754252617.507       -1653.378          19.000
G01  20788138.171          -0.421        2829.724          11.000                                                            
C08  38197877.959      -44771.574        1794.148          15.000                                                            
J01  38031514.131       -3953.052         160.948          13.000    38031506.636       -2235.701         117.563          19.000
E24  28347028.161   -70694363.928       -1999.604          13.000    28347048.247  -942820001.836       -1492.926          20.000
> 2021 04 12 05 35 52.0000010  0  6
G22  24528667.857      -70577.555        2713.275          27.000                                                            
G09  25186199.357  -183799378.036       -2223.617          24.000    25186208.651  -791965252.603       -1657.977          19.000
G01  20787595.247       -2832.037        2832.168          12.000                                                            
C08  38197533.498      -46562.985        1789.417          15.000                                                            
J01  38031480.254       -4115.855         161.947          14.000    38031476.657       -2353.294         117.729          18.000
E24  28347407.998   -77763795.359       -1997.288          14.000    28347427.784  -980532799.907       -1492.858          20.000
> 2021 04 12 05 35 53.0000010  0  6
G22  24528152.513      -73289.987        2712.101          28.000                                                            
G09  25186624.163  -190868582.357       -2224.707          24.000    25186631.958  -829677883.236       -1660.485          19.000
G01  20787058.619       -5666.316        2839.323           9.000                                                            
C08  38197190.835      -48350.288        1787.098          15.000                                                            
J01  38031447.277       -4275.438         159.169          14.000    38031446.677       -2470.551         116.746          19.000
E24  28347790.833   -84833226.188       -1999.458          14.000    28347810.619 -1018245597.030       -1492.074          20.000
> 2021 04 12 05 35 54.0000010  0  7
G22  24527634.172      -76001.018        2711.322          28.000                                                            
G09  25187044.472  -197937788.230       -2222.069          21.000    25187055.264  -867390512.921       -1659.132          19.000
G01  20786520.192       -8505.777        2836.220          10.000                                                            
G21  20411350.316           0.000         283.476          17.000                                                            
C08  38196847.872      -50136.972        1787.236          15.000                                                            
J01  38031414.000       -4434.986         160.746          14.000    38031416.698       -2587.017         116.341          18.000
E24  28348173.068   -91902655.349       -2000.590          14.000    28348191.056 -1055958394.001       -1494.300          20.000
> 2021 04 12 05 35 55.0000010  0  7
G22  24527118.229      -78711.179        2710.676          24.000                                                            
G09  25187465.980  -205006995.611       -2221.951          19.000    25187479.471  -905103143.285       -1658.626          19.000
G01  20785985.362      -11343.228        2834.325           9.000                                                            
G21  20411297.853          -0.423         283.851           9.000                                                            
C08  38196504.310      -51927.429        1790.327          15.000                                                            
J01  38031379.524       -4594.486         157.357          13.000    38031386.719       -2703.244         116.226          18.000
E24  28348556.503   -98972083.462       -2001.482          15.000    28348572.392 -1093671188.247       -1494.923          20.000
> 2021 04 12 05 35 56.0000010  0  7
G22  24526601.087      -81423.032        2714.110          26.000                                                            
G09  25187887.488  -212076203.943       -2218.800          24.000    25187901.279  -942815776.620       -1653.776          19.000
G01  20785446.035      -14175.380        2829.025           9.000                                                            
G21  20411247.787        -284.540         283.497          11.000                                                            
C08  38196159.849      -53716.301        1789.321          14.000                                                            
J01  38031347.746       -4751.206         155.848          14.000    38031356.740       -2820.205         117.828          18.000
E24  28348940.537  -106041512.315       -1998.925          16.000    28348953.728 -1131383983.969       -1492.869          20.000
> 2021 04 12 05 35 57.0000010  0  7
G22  24526083.945      -84138.349        2716.717          29.000                                                            
G09  25188309.896  -219145415.568       -2216.692          23.000    25188321.588  -980528415.957       -1652.826          19.000
G01  20784907.608      -17003.657        2830.332           9.000                                                            
G21  20411193.825        -568.438         283.576           9.000                                                            
C08  38195815.387      -55504.243        1783.143          14.000                                                            
J01  38031313.869       -4908.124         157.748          14.000    38031326.161       -2939.423         120.037          19.000
E24  28349321.873  -113110944.041       -1996.505          16.000    28349332.366 -1169096782.873       -1489.982          19.000
> 2021 04 12 05 35 58.0000010  0  7
G22  24525566.803      -86855.627        2717.144          29.000                                                            
G09  25188731.404  -226214627.740       -2217.973          22.000    25188744.295 -1018241051.214       -1656.408          19.000
G01  20784367.682      -19832.135        2824.191           9.000                                                            
G21  20411142.260        -847.173         282.583           9.000                                                            
C08  38195471.825      -57287.290        1782.096          14.000                                                            
J01  38031280.892       -5066.366         158.077          15.000    38031295.882       -3059.596         120.040          19.000
E24  28349702.609  -120180376.441       -1997.469          16.000    28349712.203 -1206809580.916       -1491.132          19.000
> 2021 04 12 05 35 59.0000010  0  6
G22  24525050.261      -89571.631        2714.852          28.000                                                            
G09  25189154.111  -233283837.607       -2221.026          22.000    25189164.904 -1055953684.976       -1656.049          18.000
G21  20411086.799       -1130.463         282.833           9.000                                                            
C08  38195128.563      -59068.455        1778.952          15.000                                                            
J01  38031246.116       -5224.658         159.407          14.000    38031265.303       -3179.454         119.439          19.000
E24  28350086.943  -127249807.223       -1999.013          17.000    28350092.339 -1244522379.533       -1490.452          18.000
> 2021 04 12 05 36  0.0000010  0  6
G22  24524534.018      -92286.237        2714.182          30.000                                                            
G09  25189575.620  -240353046.006       -2221.326          24.000    25189588.511 -1093666316.269       -1660.683          18.000
G21  20411037.033       -1413.700         286.708           9.000                                                            
C08  38194789.198      -60846.080        1779.965          14.000                                                            
J01  38031213.139       -5383.676         159.666          14.000    38031235.024       -3298.806         119.251          19.000
E24  28350469.778  -134319237.214       -1999.688          17.000    28350472.177 -1282235177.508       -1492.529          18.000
> 2021 04 12 05 36  1.0000010  0  6
G22  24524018.076      -95000.676        2714.266          29.000                                                            
G09  25189999.226  -247422254.773       -2220.226          23.000    25190013.017 -1131378945.487       -1660.261          19.000
G01  20782635.781           0.000        2820.730          18.000                                                            
C08  38194445.036      -62625.190        1777.550          14.000                                                            
J01  38031179.562       -5544.231         162.478          13.000    38031204.445       -3418.056         119.609          19.000
E24  28350852.613  -141388666.693       -1998.857          17.000    28350852.613 -1319947974.116       -1493.664          18.000
> 2021 04 12 05 36  2.0000010  0  6
G22  24523502.732      -97714.234        2713.521          29.000                                                            
G09  25190424.332  -254491463.639       -2220.665          24.000    25190436.324 -1169091575.988       -1660.178          19.000
G01  20781983.432           0.279        2820.936          16.000                                                            
C08  38194102.973      -64402.161        1776.353          14.000                                                            
J01  38031145.985       -5705.532         158.960          13.000    38031174.166       -3537.095         118.389          19.000
E24  28351233.350  -148458097.048       -1999.009          17.000    28351234.849 -1357660769.355       -1494.593          18.000
> 2021 04 12 05 36  3.0000010  0  6
G22  24522985.890     -100428.338        2714.692          29.000                                                            
G09  25190850.037  -261560672.695       -2220.240          23.000    25190860.530 -1206804206.890       -1659.641          19.000
G01  20781459.395       -2819.366        2820.256          14.000                                                            
C08  38193761.209      -66179.465        1778.892          14.000                                                            
J01  38031116.006       -5863.724         157.262          13.000    38031144.187       -3655.385         118.355          19.000
E24  28351613.486  -155527526.892       -1999.383          18.000    28351614.086 -1395373565.435       -1493.426          18.000
> 2021 04 12 05 36  4.0000010  0  6
G22  24522468.448     -103143.098        2714.626          30.000                                                            
G09  25191271.546  -268629881.299       -2221.212          23.000    25191281.439 -1244516837.376       -1658.905          19.000
G01  20780918.569       -5638.256        2816.435          11.000                                                            
C08  38193418.547      -67959.240        1779.874          14.000                                                            
J01  38031086.327       -6019.776         155.647          14.000    38031114.207       -3773.081         117.108          19.000
E24  28351994.822  -162596956.685       -1999.936          17.000    28351993.923 -1433086362.116       -1492.986          19.000
> 2021 04 12 05 36  5.0000010  0  6
G22  24521953.105     -105857.577        2714.260          28.000                                                            
G09  25191695.452  -275699090.688       -2218.794          24.000    25191702.647 -1282229467.001       -1662.773          19.000
G01  20780386.738       -8454.231        2814.923          13.000                                                            
C08  38193075.884      -69738.792        1781.440          15.000                                                            
J01  38031055.748       -6176.293         155.592          14.000    38031084.528       -3890.104         117.163          19.000
E24  28352376.458  -169666385.487       -2000.812          18.000    28352374.959 -1470799159.809       -1491.766          20.000
> 2021 04 12 05 36  6.0000010  0  6
G22  24521437.162     -108572.744        2716.336          26.000                                                            
G09  25192117.260  -282768301.057       -2218.364          23.000    25192124.455 -1319942095.231       -1658.086          19.000
G01  20779853.107      -11268.542        2815.172          13.000                                                            
C08  38192733.221      -71519.976        1781.085          16.000                                                            
J01  38031026.368       -6332.995         158.180          13.000    38031054.549       -4008.172         118.590          19.000
E24  28352758.993  -176735808.764       -2011.056          17.000    28352755.995 -1508511956.197       -1494.672          20.000
> 2021 04 12 05 36  7.0000010  0  6
G22  24520922.419     -111289.811        2717.536          27.000                                                            
G09  25192539.068  -289837511.593       -2219.613          22.000    25192545.963 -1357654729.403       -1651.458          19.000
G01  20779320.076      -14084.875        2817.496          14.000                                                            
C08  38192389.059      -73301.698        1781.622          16.000                                                            
J01  38030996.389       -6492.277         159.933          13.000    38031023.670       -4127.503         119.902          19.000
E24  28353143.927  -183805230.368       -2003.649          17.000    28353136.732 -1546224751.007       -1494.835          20.000
> 2021 04 12 05 36  8.0000010  0  6
G22  24520406.176     -114007.287        2717.334          27.000                                                            
G09  25192961.476  -296906722.215       -2217.314          25.000    25192966.872 -1395367370.269       -1648.281          18.000
G01  20778791.542      -16902.679        2817.218          14.000                                                            
C08  38192046.396      -75084.420        1783.503          16.000                                                            
J01  38030966.110       -6654.623         162.570          14.000    38030992.492       -4247.703         120.141          19.000
E24  28353523.464  -190874656.805       -2001.282          16.000    28353516.869 -1583937546.871       -1492.493          20.000
> 2021 04 12 05 36  9.0000010  0  6
G22  24519890.833     -116724.106        2716.338          27.000                                                            
G09  25193382.984  -303975933.621       -2218.595          24.000    25193386.881 -1433080008.378       -1652.103          17.000
G01  20778264.207      -19718.171        2814.184          14.000                                                            
C08  38191701.935      -76866.836        1780.438          16.000                                                            
J01  38030936.730       -6821.612         170.075          12.000    38030961.313       -4367.781         120.064          19.000
E24  28353902.702  -197944085.128       -2000.489          16.000    28353897.006 -1621650344.951       -1491.853          20.000
> 2021 04 12 05 36 10.0000010  0  7
G22  24519370.693     -119439.918        2715.434          27.000                                                            
G09  25193803.593  -311045144.482       -2218.196          24.000    25193808.090 -1470792645.418       -1650.786          17.000
G01  20777734.174      -22533.530        2816.401          15.000                                                            
C08  38191359.272      -78648.642        1782.595          16.000                                                            
J01  38030906.152       -6992.128         170.739          13.000    38030930.435       -4487.752         119.640          19.000
E24  28354284.038  -205013514.027       -1999.612          15.000    28354277.742 -1659363141.783       -1494.516          20.000
C28  25565211.672           0.000       -2689.391          16.000                                                            
> 2021 04 12 05 36 11.0000010  0  7
G22  24518852.052     -122155.085        2715.220          26.000                                                            
G09  25194225.101  -318114354.785       -2218.457          24.000    25194231.397 -1508505281.594       -1654.347          17.000
G01  20777203.242      -25349.238        2816.178          15.000                                                            
C08  38191016.609      -80432.163        1784.049          16.000                                                            
J01  38030875.573       -7165.227         174.319          13.000    38030899.856       -4606.893         118.736          19.000
E24  28354664.474  -212082941.666       -2002.046          15.000    28354659.977 -1697075936.215       -1495.673          19.000
C28  25565727.915           0.528       -2693.917          11.000                                                            
> 2021 04 12 05 36 12.0000010  0  7
G22  24518335.210     -124870.615        2715.803          26.000                                                            
G09  25194644.810  -325183566.626       -2216.517          23.000    25194653.804 -1546217917.681       -1654.184          17.000
G01  20776668.712      -28165.073        2816.156          15.000                                                            
C08  38190674.546      -82217.232        1785.122          16.000                                                            
J01  38030838.998       -7339.161         173.748          13.000    38030869.277       -4725.993         119.188          19.000
E24  28355044.311  -219152370.086       -1998.575          16.000    28355041.913 -1734788730.483       -1497.084          19.000
C28  25566239.061    -7068737.328       -2689.518          15.000                                                            
> 2021 04 12 05 36 13.0000010  0  7
G22  24517816.269     -127586.611        2716.437          24.000                                                            
G09  25195063.620  -332252780.561       -2212.959          20.000    25195076.511 -1583930552.576       -1655.685          18.000
G01  20776141.377      -30981.507        2816.698          16.000                                                            
C08  38190329.785      -84002.480        1784.120          15.000                                                            
J01  38030809.319       -7513.002         174.697          14.000    38030839.298       -4845.370         119.041          18.000
E24  28355422.050  -226221801.622       -1997.321          16.000    28355423.849 -1772501524.583       -1496.841          19.000
C28  25566752.605   -14137475.519       -2691.450          14.000                                                            
> 2021 04 12 05 36 14.0000010  0  8
G22  24517298.228     -130303.416        2716.928          25.000                                                            
G09  25195480.632  -339321997.565       -2211.434           9.000    25195498.919 -1621643186.426       -1656.043          18.000
G01  20775612.543      -33797.565        2815.349          18.000                                                            
G16  24512795.345           0.000       -2261.511          17.000                                                            
C08  38189983.824      -85787.526        1784.987          15.000                                                            
J01  38030778.140       -7686.462         173.496          15.000    38030808.719       -4966.279         120.968          18.000
E24  28355798.289  -233291233.310       -1997.741          16.000    28355805.784 -1810214316.135       -1497.629          18.000
C28  25567267.649   -21206214.446       -2688.885          15.000                                                            
> 2021 04 12 05 36 15.0000010  0  8
G22  24516777.488     -133020.346        2716.815          24.000                                                            
G09  25195907.536  -346391213.962       -2213.298          13.000    25195921.626 -1659355819.558       -1656.723          18.000
G01  20775081.310      -36610.929        2814.053          18.000                                                            
G16  24513213.855           0.084       -2261.218           9.000                                                            
C08  38189638.763      -87569.399        1780.015          15.000                                                            
J01  38030747.561       -7859.064         171.259          14.000    38030778.740       -5086.401         119.588          17.000
E24  28356177.527  -240360664.337       -1998.588          15.000    28356187.720 -1847927106.400       -1500.966          18.000
C28  25567780.294   -28274952.220       -2692.698          14.000                                                            
> 2021 04 12 05 36 16.0000010  0  8
G22  24516261.845     -135738.123        2718.921          25.000                                                            
G09  25196326.346  -353460429.740       -2213.189          15.000    25196343.734 -1697068453.324       -1654.646          19.000
G01  20774552.177      -39425.287        2814.947          19.000                                                            
G16  24513630.866    -7069162.280       -2267.730          10.000                                                            
C08  38189293.702      -89347.836        1777.666          15.000                                                            
J01  38030712.186       -8030.069         169.902          14.000    38030748.161       -5206.835         121.758          16.000
E24  28356557.364  -247430095.595       -1997.417          16.000    28356570.555 -1885639898.297       -1493.332          17.000
C28  25568294.438   -35343684.425       -2698.646          13.000                                                            
> 2021 04 12 05 36 17.0000010  0  8
G22  24515742.605     -138458.274        2720.758          24.000                                                            
G09  25196747.854  -360529646.235       -2213.515          16.000    25196765.542 -1734781089.077       -1653.097          19.000
G01  20774019.446      -42240.472        2815.586          20.000                                                            
G16  24514054.773   -14138322.808       -2269.610          10.000                                                            
C08  38188951.939      -91122.016        1772.512          14.000                                                            
J01  38030680.108       -8197.185         166.459          14.000    38030717.282       -5329.629         123.606          15.000
E24  28356935.402  -254499527.448       -1997.274          16.000    28356949.193 -1923352697.647       -1488.760          16.000
C28  25568808.882   -42412414.692       -2696.795          11.000                                                            
> 2021 04 12 05 36 18.0000010  0  8
G22  24515221.565     -141179.029        2720.701          25.000                                                            
G09  25197168.463  -367598861.557       -2214.511          17.000    25197187.350 -1772493725.135       -1653.999          19.000
G01  20773493.010      -45055.852        2815.086          20.000                                                            
G16  24514481.078   -21207476.698       -2276.194           9.000                                                            
C08  38188608.377      -92897.415        1774.794          14.000                                                            
J01  38030651.628       -8360.793         158.994          13.000    38030686.104       -5451.910         119.991          15.000
E24  28357312.841  -261568958.672       -1998.705          16.000    28357328.130 -1961065497.351       -1491.653          16.000
C28  25569324.825   -49481150.974       -2690.518          11.000                                                            
> 2021 04 12 05 36 19.0000010  0  8
G22  24514704.423     -143898.725        2719.245          25.000                                                            
G09  25197589.971  -374668075.772       -2214.431          18.000    25197609.158 -1810206361.172       -1652.951          19.000
G01  20772959.080      -47872.372        2816.117          19.000                                                            
G16  24514911.880   -28276628.276       -2283.773           9.000                                                            
C08  38188266.313      -94671.018        1774.287          13.000                                                            
J01  38030623.747       -8518.454         156.351          14.000    38030655.825       -5572.517         121.375          15.000
E24  28357692.678  -268638389.398       -1998.372          17.000    28357707.667 -1998778294.843       -1493.136          16.000
C28  25569838.069   -56549887.074       -2692.366          10.000                                                            
> 2021 04 12 05 36 20.0000010  0  8
G22  24514186.981     -146618.297        2719.841          25.000                                                            
G09  25198012.679  -381737290.071       -2216.107          18.000    25198031.266 -1847918997.479       -1653.939          20.000
G01  20772425.149      -50688.596        2818.555          19.000                                                            
G16  24515343.581   -35345772.740       -2282.776           9.000                                                            
C08  38187923.351      -96445.985        1775.027          13.000                                                            
J01  38030597.066       -8673.503         152.018          14.000    38030625.846       -5693.567         120.944          16.000
E24  28358074.613  -275707819.864       -1999.263          17.000    28358087.804 -2036491090.503       -1494.341          17.000
C28  25570353.413   -63618620.039       -2696.814          11.000                                                            
> 2021 04 12 05 36 21.0000010  0  8
G22  24513669.240     -149337.273        2718.042          26.000                                                            
G09  25198432.088  -388806503.447       -2215.152          19.000    25198453.074 -1885631633.019       -1654.210          20.000
G01  20771892.418      -53507.596        2820.782          19.000                                                            
G16  24515776.481   -42414919.857       -2278.718          10.000                                                            
C08  38187579.489      -98226.297        1785.410          12.000                                                            
J01  38030568.585       -8824.454         150.271          13.000    38030595.267       -5813.957         119.924          16.000
E24  28358455.050  -282777248.620       -2000.945          17.000    28358467.641 -2074203885.316       -1495.078          18.000
C28  25570867.857   -70687348.089       -2700.767          11.000                                                            
> 2021 04 12 05 36 22.0000010  0  8
G22  24513153.897     -152055.318        2718.925          24.000                                                            
G09  25198852.997  -395875718.330       -2214.930          19.000    25198875.182 -1923344268.602       -1654.015          19.000
G01  20771358.488      -56327.443        2816.383          18.000                                                            
G16  24516209.082   -49484071.941       -2272.236           9.000                                                            
C08  38187235.327     -100012.384        1786.147          11.000                                                            
J01  38030541.004       -8974.707         148.979          13.000    38030564.688       -5934.127         120.564          17.000
E24  28358836.986  -289846676.606       -2000.772          18.000    28358848.078 -2111916680.222       -1494.492          19.000
C28  25571384.999   -77756069.868       -2709.354          12.000                                                            
> 2021 04 12 05 36 23.0000010  0  8
G22  24512637.954     -154772.730        2715.889          23.000                                                            
G09  25199277.203  -402944932.267       -2215.188          19.000    25199296.690 -1961056904.214       -1654.140          20.000
G01  20770823.058      -59143.868        2815.511          18.000                                                            
G16  24516639.584   -56553226.851       -2275.438          10.000                                                            
C08  38186890.266     -101799.925        1788.809          12.000                                                            
J01  38030515.522       -9127.186         154.781          12.000    38030533.809       -6055.022         120.731          17.000
E24  28359217.422  -296916105.063       -2001.575          17.000    28359228.215 -2149629475.202       -1494.372          19.000
C28  25571899.143   -84824789.186       -2706.601          11.000                                                            
> 2021 04 12 05 36 24.0000010  0  8
G22  24512123.210     -157489.228        2717.309          24.000                                                            
G09  25199700.510  -410014147.064       -2215.148          19.000    25199719.097 -1998769539.353       -1654.543          20.000
G01  20770289.428      -61956.199        2809.210          18.000                                                            
G16  24517070.685   -63622379.449       -2280.214          11.000                                                            
C08  38186546.104     -103588.675        1787.615          13.000                                                            
J01  38030488.241       -9283.484         156.135          13.000    38030502.931       -6176.001         120.572          17.000
E24  28359598.159  -303985532.558       -2001.741          17.000    28359609.251 -2187342269.632       -1495.804          19.000
C28  25572414.486   -91893512.063       -2701.896          10.000                                                            
> 2021 04 12 05 36 25.0000010  0  8
G22  24511606.968     -160206.548        2716.876          24.000                                                            
G09  25200123.218  -417083361.087       -2214.761          19.000    25200140.306 -2036482174.355       -1654.594          19.000
G01  20769756.996      -64765.099        2807.762          18.000                                                            
G16  24517500.887   -70691527.636       -2284.523           9.000                                                            
C08  38186202.242     -105376.692        1789.490          13.000                                                            
J01  38030461.559       -9439.370         154.690          14.000    38030472.652       -6296.702         120.394          18.000
E24  28359977.996  -311054959.766       -2002.089          17.000    28359989.987 -2225055063.554       -1495.382          19.000
C28  25572930.129   -98962240.725       -2695.615           9.000                                                            
> 2021 04 12 05 36 26.0000010  0  8
G22  24511090.425     -162924.917        2719.098          26.000                                                            
G09  25200546.225  -424152576.349       -2211.114          23.000    25200562.114 -2074194809.743       -1653.323          19.000
G01  20769225.464      -67573.130        2808.389          18.000                                                            
G16  24517930.790   -77760673.085       -2281.142          10.000                                                            
C08  38185855.682     -107166.819        1788.772          14.000                                                            
J01  38030432.479       -9595.120         157.644          15.000    38030441.773       -6417.609         121.193          18.000
E24  28360359.632  -318124387.234       -2000.933          16.000    28360369.825 -2262767858.591       -1493.744          20.000
C28  25573443.374  -106030975.489       -2689.435           9.000                                                            
> 2021 04 12 05 36 27.0000010  0  8
G22  24510571.484     -165645.246        2721.339          26.000                                                            
G09  25200966.834  -431221795.547       -2209.011          24.000    25200983.022 -2111907446.646       -1651.837          19.000
G01  20768691.834      -70382.268        2809.198          18.000                                                            
G16  24518359.493   -84829821.972       -2278.677          10.000                                                            
C08  38185508.523     -108956.011        1786.824          14.000                                                            
J01  38030403.100       -9754.824         161.254          14.000    38030410.295       -6539.987         123.281          18.000
E24  28360739.469  -325193816.345       -1998.949          16.000    28360749.062 -2300480654.990       -1492.224          20.000
C28  25573954.520  -113099718.754       -2684.154           9.000                                                            
> 2021 04 12 05 36 28.0000010  0  8
G22  24510053.743     -168366.688        2721.563          25.000                                                            
G09  25201386.243  -438291015.436       -2209.041          24.000    25201403.332 -2149620084.831       -1650.969          19.000
G01  20768159.702      -73191.444        2810.634          18.000                                                            
G16  24518785.498   -91898974.902       -2272.057           9.000                                                            
C08  38185164.361     -110743.331        1790.080          15.000                                                            
J01  38030371.022       -9918.030         165.357          16.000    38030378.817       -6663.669         123.599          18.000
E24  28361118.706  -332263247.420       -1997.844          17.000    28361128.599 -2338193452.733       -1491.686          20.000
C28  25574466.565  -120168467.266       -2676.282           9.000                                                            
> 2021 04 12 05 36 29.0000010  0  8
G22  24509536.001     -171088.052        2721.089          25.000                                                            
G09  25201805.653  -445360235.415       -2209.880          24.000    25201823.641 -2187332723.499       -1651.113          19.000
G01  20767624.872      -76001.856        2810.784          17.000                                                            
G16  24519212.702   -98968130.981       -2274.358           9.000                                                            
C08  38184819.300     -112534.035        1786.956          14.000                                                            
J01  38030341.642      -10083.561         165.779          16.000    38030346.739       -6787.245         123.193          18.000
E24  28361497.344  -339332678.526       -1998.671          17.000    28361508.736 -2375906250.578       -1491.934          20.000
C28  25574976.512  -127237221.797       -2675.729           9.000                                                            
> 2021 04 12 05 36 30.0000010  0  8
G22  24509017.360     -173807.861        2718.605          23.000                                                            
G09  25202225.962  -452429453.850       -2211.141          22.000    25202244.249 -2225045359.606       -1653.801          19.000
G01  20767088.244      -78814.238        2814.772          16.000                                                            
G16  24519634.510  -106037288.522       -2269.950           9.000                                                            
C08  38184472.740     -114320.429        1783.895          13.000                                                            
J01  38030311.063      -10251.072         167.467          15.000    38030315.860       -6909.548         121.554          18.000
E24  28361877.781  -346402109.506       -1996.259          17.000    28361889.472 -2413619046.546       -1494.217          20.000
C28  25575486.159  -134305975.617       -2675.025          10.000                                                            
> 2021 04 12 05 36 31.0000010  0  7
G22  24508495.721     -176527.874        2719.899          24.000                                                            
G09  25202646.871  -459498671.446       -2211.919          21.000    25202666.057 -2262757995.877       -1652.350          19.000
G01  20766551.615      -81629.194        2815.297          16.000                                                            
C08  38184129.177     -116105.629        1786.763          13.000                                                            
J01  38030275.388      -10418.768         167.869          15.000    38030285.281       -7030.794         120.848          18.000
E24  28362260.316  -353471540.483       -2000.078          17.000    28362270.209 -2451331841.274       -1495.301          19.000
C28  25575995.507  -141374731.522       -2668.108          12.000                                                            
> 2021 04 12 05 36 32.0000010  0  7
G22  24507976.181     -179247.641        2719.037          25.000                                                            
G09  25203067.180  -466567888.015       -2213.462          22.000    25203086.966 -2300470633.042       -1652.457          18.000
G01  20766017.086      -84444.083        2815.066          16.000                                                            
C08  38183786.814     -117890.716        1781.700          12.000                                                            
J01  38030243.310      -10585.989         167.427          15.000    38030253.803       -7151.460         120.363          18.000
E24  28362642.251  -360540969.057       -2001.740          17.000    28362651.545 -2489044634.234       -1497.226          18.000
C28  25576503.355  -148443491.760       -2671.005          12.000                                                            
> 2021 04 12 05 36 33.0000010  0  7
G22  24507464.136     -181965.849        2717.831          24.000                                                            
G09  25203487.489  -473637104.034       -2212.493          23.000    25203508.174 -2338183270.175       -1653.410          17.000
G01  20765481.956      -87257.820        2813.906          16.000                                                            
C08  38183444.451     -119670.561        1777.479           9.000                                                            
J01  38030211.832      -10753.191         164.760          13.000    38030222.925       -7271.844         120.363          19.000
E24  28363023.887  -367610395.792       -2003.360          16.000    28363032.281 -2526757426.616       -1496.883          17.000
C28  25577011.204  -155512247.963       -2675.361           9.000                                                            
> 2021 04 12 05 36 34.0000010  0  7
G22  24506949.392     -184683.523        2717.438          25.000                                                            
G09  25203908.098  -480706321.104       -2210.919          22.000    25203929.383 -2375895906.191       -1653.640          17.000
