# 2019 11 12 15:59:07
#
# Version: 8.1.0 Manufacturer: Xiaomi Make: MI 8
#
1573545547314,$GPGGA,075908.00,3101.616441,N,12126.827873,E,1,32,0.4,17.8,M,9.7,M,,*6E

1573545547318,$GPGSV,3,1,10,10,77,274,43,20,59,179,38,25,51,145,39,32,43,318,31*70

1573545547319,$GPGSV,3,2,10,12,43,073,45,24,28,046,40*72

1573545547319,$GPGSV,3,3,10,10,,,39,25,,,31,32,,,25,24,,,39,8*68

1573545547319,$GLGSV,1,1,04,76,78,218,42,65,55,099,40,75,46,030,41,66,44,341,35*63

1573545547319,$QZGSV,2,1,02,01,66,134,40*57

1573545547319,$QZGSV,2,2,02,01,,,28,8*78

1573545547319,$BDGSV,3,1,10,225,82,249,40,206,65,009,36,216,63,356,36,203,51,200,*66

1573545547319,$BDGSV,3,2,10,209,49,318,32,201,47,148,,207,45,176,33,214,38,130,41*67

1573545547319,$BDGSV,3,3,10,224,38,042,40,223,29,225,33*69

1573545547319,$GAGSV,4,1,10,102,73,109,39,108,63,346,41,103,47,094,41,130,37,197,39*6B

1573545547319,$GAGSV,4,2,10,125,30,043,39*67

1573545547319,$GAGSV,4,3,10,102,,,35,108,,,39,103,,,39,130,,,26,1*7B

1573545547319,$GAGSV,4,4,10,125,,,37,1*46

1573545547319,$GPGSA,A,3,10,12,20,24,25,32,,,,,,,1.6,0.9,1.3*3E

1573545547319,$GNGSA,A,3,10,12,20,24,25,32,,,,,,,1.6,0.9,1.3*20

1573545547319,$GNGSA,A,3,65,66,75,76,,,,,,,,,1.6,0.9,1.3*20

1573545547319,$QZGSA,A,3,01,,,,,,,,,,,,1.6,0.9,1.3*23

1573545547319,$IMGSA,A,3,,,,,,,,,,,,,1.6,0.9,1.3*2D

1573545547319,$BDGSA,A,3,206,207,209,214,216,223,224,225,,,,,1.6,0.9,1.3*25

1573545547320,$GAGSA,A,3,102,103,108,125,130,,,,,,,,1.6,0.9,1.3*13

1573545547320,$GPRMC,075908.00,A,3101.616441,N,12126.827873,E,000.0,127.7,121119,,,A*51

1573545548330,$GPGGA,075909.00,3101.616502,N,12126.827773,E,1,33,0.4,17.3,M,9.7,M,,*6C

1573545548334,$GPGSV,3,1,10,10,77,274,42,20,59,179,37,25,51,145,38,32,43,318,30*7E

1573545548334,$GPGSV,3,2,10,12,43,073,45,24,28,046,40*72

1573545548334,$GPGSV,3,3,10,10,,,39,25,,,30,32,,,23,24,,,39,8*6F

1573545548335,$GLGSV,1,1,04,76,78,218,41,65,55,099,39,75,46,030,41,66,44,341,34*6F

1573545548335,$QZGSV,2,1,02,01,66,134,39*59

1573545548336,$QZGSV,2,2,02,01,,,28,8*78

1573545548336,$BDGSV,3,1,10,225,82,249,40,206,65,009,35,216,63,356,36,203,51,200,25*62

1573545548336,$BDGSV,3,2,10,209,49,318,31,201,47,148,,207,45,176,31,214,38,130,41*66

1573545548336,$BDGSV,3,3,10,224,38,042,40,223,29,225,32*68

1573545548336,$GAGSV,4,1,10,102,73,109,38,108,63,346,41,103,47,094,41,130,37,197,39*6A

1573545548337,$GAGSV,4,2,10,125,30,043,39*67

1573545548337,$GAGSV,4,3,10,102,,,36,108,,,40,103,,,38,130,,,24,1*75

1573545548337,$GAGSV,4,4,10,125,,,37,1*46

1573545548337,$GPGSA,A,3,10,12,20,24,25,32,,,,,,,1.5,0.9,1.2*3C

1573545548337,$GNGSA,A,3,10,12,20,24,25,32,,,,,,,1.5,0.9,1.2*22

1573545548337,$GNGSA,A,3,65,66,75,76,,,,,,,,,1.5,0.9,1.2*22

1573545548338,$QZGSA,A,3,01,,,,,,,,,,,,1.5,0.9,1.2*21

1573545548338,$IMGSA,A,3,,,,,,,,,,,,,1.5,0.9,1.2*2F

1573545548338,$BDGSA,A,3,203,206,207,209,214,216,223,224,225,,,,1.5,0.9,1.2*16

1573545548338,$GAGSA,A,3,102,103,108,125,130,,,,,,,,1.5,0.9,1.2*11

1573545548338,$GPRMC,075909.00,A,3101.616502,N,12126.827773,E,000.1,149.9,121119,,,A*5E

1573545549338,$GPGGA,075910.00,3101.616690,N,12126.827701,E,1,33,0.4,17.2,M,9.7,M,,*68

1573545549343,$GPGSV,3,1,10,10,77,274,42,20,59,179,35,25,51,145,36,32,43,318,28*7B

1573545549343,$GPGSV,3,2,10,12,43,073,45,24,28,046,40*72

1573545549343,$GPGSV,3,3,10,10,,,39,25,,,29,32,,,23,24,,,38,8*66

1573545549344,$GLGSV,1,1,04,76,78,218,40,65,55,099,39,75,46,030,41,66,44,341,32*68

1573545549344,$QZGSV,2,1,02,01,66,134,37*57

1573545549344,$QZGSV,2,2,02,01,,,28,8*78

1573545549344,$BDGSV,3,1,10,225,82,249,39,206,65,009,35,216,63,356,36,203,51,200,24*6D

1573545549345,$BDGSV,3,2,10,209,49,318,30,201,47,148,,207,45,176,30,214,38,130,40*67

1573545549345,$BDGSV,3,3,10,224,38,042,40,223,29,225,30*6A

1573545549345,$GAGSV,4,1,10,102,73,109,38,108,63,346,40,103,47,094,42,130,37,197,39*68

1573545549345,$GAGSV,4,2,10,125,30,043,39*67

1573545549345,$GAGSV,4,3,10,102,,,36,108,,,41,103,,,38,130,,,23,1*73

1573545549345,$GAGSV,4,4,10,125,,,36,1*47

1573545549345,$GPGSA,A,3,10,12,20,24,25,32,,,,,,,1.6,0.9,1.3*3E

1573545549345,$GNGSA,A,3,10,12,20,24,25,32,,,,,,,1.6,0.9,1.3*20

1573545549345,$GNGSA,A,3,65,66,75,76,,,,,,,,,1.6,0.9,1.3*20

1573545549345,$QZGSA,A,3,01,,,,,,,,,,,,1.6,0.9,1.3*23

1573545549345,$IMGSA,A,3,,,,,,,,,,,,,1.6,0.9,1.3*2D

1573545549345,$BDGSA,A,3,203,206,207,209,214,216,223,224,225,,,,1.6,0.9,1.3*14

1573545549345,$GAGSA,A,3,102,103,108,125,130,,,,,,,,1.6,0.9,1.3*13

1573545549346,$GPRMC,075910.00,A,3101.616690,N,12126.827701,E,000.1,122.8,121119,,,A*57

1573545550316,$GPGGA,075911.00,3101.616795,N,12126.827628,E,1,33,0.4,17.0,M,9.7,M,,*65

1573545550320,$GPGSV,3,1,10,10,77,274,42,20,59,179,33,25,51,145,34,32,43,318,27*70

1573545550320,$GPGSV,3,2,10,12,43,073,45,24,28,046,40*72

1573545550320,$GPGSV,3,3,10,10,,,39,25,,,28,32,,,22,24,,,38,8*66

1573545550321,$GLGSV,1,1,04,76,78,218,39,65,55,099,39,75,46,030,41,66,44,341,31*65

1573545550321,$QZGSV,2,1,02,01,66,134,35*55

1573545550321,$QZGSV,2,2,02,01,,,29,8*79

1573545550321,$BDGSV,3,1,10,225,82,249,38,206,65,009,34,216,63,356,36,203,51,200,23*6A

1573545550321,$BDGSV,3,2,10,209,49,318,29,201,47,148,,207,45,176,29,214,38,130,40*67

1573545550321,$BDGSV,3,3,10,224,38,042,40,223,29,225,29*62

1573545550321,$GAGSV,4,1,10,102,73,109,37,108,63,346,40,103,47,094,42,130,37,197,38*66

1573545550322,$GAGSV,4,2,10,125,30,043,39*67

1573545550322,$GAGSV,4,3,10,102,,,36,108,,,41,103,,,37,130,,,,1*7D

1573545550322,$GAGSV,4,4,10,125,,,36,1*47

1573545550322,$GPGSA,A,3,10,12,20,24,25,32,,,,,,,1.6,1.0,1.2*37

1573545550322,$GNGSA,A,3,10,12,20,24,25,32,,,,,,,1.6,1.0,1.2*29

1573545550322,$GNGSA,A,3,65,66,75,76,,,,,,,,,1.6,1.0,1.2*29

1573545550322,$QZGSA,A,3,01,,,,,,,,,,,,1.6,1.0,1.2*2A

1573545550322,$IMGSA,A,3,,,,,,,,,,,,,1.6,1.0,1.2*24

1573545550322,$BDGSA,A,3,203,206,207,209,214,216,223,224,225,,,,1.6,1.0,1.2*1D

1573545550322,$GAGSA,A,3,102,103,108,125,130,,,,,,,,1.6,1.0,1.2*1A

1573545550322,$GPRMC,075911.00,A,3101.616795,N,12126.827628,E,000.0,122.8,121119,,,A*59

1573545551329,$GPGGA,075912.00,3101.616856,N,12126.827643,E,1,32,0.4,16.8,M,9.7,M,,*63

1573545551334,$GPGSV,3,1,10,10,77,274,41,20,59,179,32,25,51,145,31,32,43,318,26*76

1573545551335,$GPGSV,3,2,10,12,43,073,44,24,28,046,40*73

1573545551335,$GPGSV,3,3,10,10,,,39,25,,,28,32,,,21,24,,,37,8*6A

1573545551335,$GLGSV,1,1,04,76,78,218,39,65,55,099,38,75,46,030,41,66,44,341,30*65

1573545551336,$QZGSV,2,1,02,01,66,134,34*54

1573545551336,$QZGSV,2,2,02,01,,,29,8*79

1573545551336,$BDGSV,3,1,10,225,82,249,38,206,65,009,34,216,63,356,35,203,51,200,*68

1573545551336,$BDGSV,3,2,10,209,49,318,29,201,47,148,,207,45,176,28,214,38,130,40*66

1573545551336,$BDGSV,3,3,10,224,38,042,40,223,29,225,27*6C

1573545551336,$GAGSV,4,1,10,102,73,109,37,108,63,346,39,103,47,094,42,130,37,197,38*68

1573545551336,$GAGSV,4,2,10,125,30,043,39*67

1573545551336,$GAGSV,4,3,10,102,,,36,108,,,41,103,,,37,130,,,,1*7D

1573545551336,$GAGSV,4,4,10,125,,,35,1*44

1573545551336,$GPGSA,A,3,10,12,20,24,25,32,,,,,,,1.6,1.0,1.2*37

1573545551336,$GNGSA,A,3,10,12,20,24,25,32,,,,,,,1.6,1.0,1.2*29

1573545551336,$GNGSA,A,3,65,66,75,76,,,,,,,,,1.6,1.0,1.2*29

1573545551336,$QZGSA,A,3,01,,,,,,,,,,,,1.6,1.0,1.2*2A

1573545551336,$IMGSA,A,3,,,,,,,,,,,,,1.6,1.0,1.2*24

1573545551336,$BDGSA,A,3,206,207,209,214,216,223,224,225,,,,,1.6,1.0,1.2*2C

1573545551336,$GAGSA,A,3,102,103,108,125,130,,,,,,,,1.6,1.0,1.2*1A

1573545551337,$GPRMC,075912.00,A,3101.616856,N,12126.827643,E,000.0,122.8,121119,,,A*57

1573545552333,$GPGGA,075913.00,3101.616914,N,12126.827687,E,1,31,0.4,16.8,M,9.7,M,,*6E

1573545552338,$GPGSV,3,1,10,10,77,274,41,20,59,179,31,25,51,145,30,32,43,318,25*77

1573545552338,$GPGSV,3,2,10,12,43,073,44,24,28,046,40*73

1573545552338,$GPGSV,3,3,10,10,,,39,25,,,27,32,,,20,24,,,37,8*64

1573545552338,$GLGSV,1,1,04,76,78,218,38,65,55,099,38,75,46,030,41,66,44,341,29*6C

1573545552339,$QZGSV,2,1,02,01,66,134,32*52

1573545552339,$QZGSV,2,2,02,01,,,29,8*79

1573545552339,$BDGSV,3,1,10,225,82,249,37,206,65,009,33,216,63,356,35,203,51,200,23*61

1573545552339,$BDGSV,3,2,10,209,49,318,28,201,47,148,,207,45,176,27,214,38,130,39*66

1573545552339,$BDGSV,3,3,10,224,38,042,40,223,29,225,*69

1573545552339,$GAGSV,4,1,10,102,73,109,37,108,63,346,39,103,47,094,42,130,37,197,38*68

1573545552339,$GAGSV,4,2,10,125,30,043,39*67

1573545552340,$GAGSV,4,3,10,102,,,37,108,,,41,103,,,37,130,,,19,1*74

1573545552340,$GAGSV,4,4,10,125,,,35,1*44

1573545552340,$GPGSA,A,3,10,12,20,24,25,32,,,,,,,1.6,1.0,1.2*37

1573545552340,$GNGSA,A,3,10,12,20,24,25,32,,,,,,,1.6,1.0,1.2*29

1573545552340,$GNGSA,A,3,65,66,75,76,,,,,,,,,1.6,1.0,1.2*29

1573545552340,$QZGSA,A,3,01,,,,,,,,,,,,1.6,1.0,1.2*2A

1573545552340,$IMGSA,A,3,,,,,,,,,,,,,1.6,1.0,1.2*24

1573545552340,$BDGSA,A,3,203,206,207,209,214,216,224,225,,,,,1.6,1.0,1.2*2E

1573545552340,$GAGSA,A,3,102,103,108,125,130,,,,,,,,1.6,1.0,1.2*1A

1573545552340,$GPRMC,075913.00,A,3101.616914,N,12126.827687,E,000.1,113.2,121119,,,A*50

1573545553332,$GPGGA,075914.00,3101.616947,N,12126.827656,E,1,31,0.4,16.8,M,9.7,M,,*63

1573545553337,$GPGSV,3,1,10,10,77,274,41,20,59,179,30,25,51,145,29,32,43,318,24*7F

1573545553337,$GPGSV,3,2,10,12,43,073,44,24,28,046,39*7D

1573545553337,$GPGSV,3,3,10,10,,,39,25,,,27,32,,,19,24,,,37,8*6E

1573545553337,$GLGSV,1,1,04,76,78,218,37,65,55,099,38,75,46,030,41,66,44,341,28*62

1573545553338,$QZGSV,2,1,02,01,66,134,31*51

1573545553338,$QZGSV,2,2,02,01,,,30,8*71

1573545553338,$BDGSV,3,1,10,225,82,249,37,206,65,009,33,216,63,356,35,203,51,200,22*60

1573545553338,$BDGSV,3,2,10,209,49,318,27,201,47,148,,207,45,176,27,214,38,130,39*69

1573545553338,$BDGSV,3,3,10,224,38,042,40,223,29,225,*69

1573545553338,$GAGSV,4,1,10,102,73,109,36,108,63,346,39,103,47,094,42,130,37,197,38*69

1573545553338,$GAGSV,4,2,10,125,30,043,39*67

1573545553338,$GAGSV,4,3,10,102,,,37,108,,,41,103,,,37,130,,,18,1*75

1573545553338,$GAGSV,4,4,10,125,,,35,1*44

1573545553338,$GPGSA,A,3,10,12,20,24,25,32,,,,,,,1.6,1.0,1.2*37

1573545553338,$GNGSA,A,3,10,12,20,24,25,32,,,,,,,1.6,1.0,1.2*29

1573545553339,$GNGSA,A,3,65,66,75,76,,,,,,,,,1.6,1.0,1.2*29

1573545553339,$QZGSA,A,3,01,,,,,,,,,,,,1.6,1.0,1.2*2A

1573545553339,$IMGSA,A,3,,,,,,,,,,,,,1.6,1.0,1.2*24

1573545553339,$BDGSA,A,3,203,206,207,209,214,216,224,225,,,,,1.6,1.0,1.2*2E

1573545553339,$GAGSA,A,3,102,103,108,125,130,,,,,,,,1.6,1.0,1.2*1A

1573545553339,$GPRMC,075914.00,A,3101.616947,N,12126.827656,E,000.0,113.3,121119,,,A*5D

1573545554329,$GPGGA,075915.00,3101.616948,N,12126.827717,E,1,30,0.4,16.9,M,9.7,M,,*69

1573545554331,$GPGSV,3,1,10,10,77,274,41,20,59,179,29,25,51,145,28,32,43,318,23*71

1573545554331,$GPGSV,3,2,10,12,43,073,44,24,28,046,39*7D

1573545554331,$GPGSV,3,3,10,10,,,39,25,,,26,32,,,19,24,,,36,8*6E

1573545554331,$GLGSV,1,1,04,76,78,218,37,65,55,099,37,75,46,030,41,66,44,341,27*62

1573545554331,$QZGSV,2,1,02,01,66,134,30*50

1573545554331,$QZGSV,2,2,02,01,,,30,8*71

1573545554332,$BDGSV,3,1,10,225,82,249,36,206,65,009,32,216,63,356,35,203,51,200,*60

1573545554332,$BDGSV,3,2,10,209,49,318,26,201,47,148,,207,45,176,26,214,38,130,39*69

1573545554332,$BDGSV,3,3,10,224,38,042,40,223,29,225,22*69

1573545554332,$GAGSV,4,1,10,102,73,109,36,108,63,346,38,103,47,094,42,130,37,197,38*68

1573545554332,$GAGSV,4,2,10,125,30,043,39*67

1573545554332,$GAGSV,4,3,10,102,,,37,108,,,41,103,,,36,130,,,,1*7D

1573545554332,$GAGSV,4,4,10,125,,,34,1*45

1573545554332,$GPGSA,A,3,10,12,20,24,25,32,,,,,,,1.6,1.0,1.2*37

1573545554332,$GNGSA,A,3,10,12,20,24,25,32,,,,,,,1.6,1.0,1.2*29

1573545554332,$GNGSA,A,3,65,66,75,76,,,,,,,,,1.6,1.0,1.2*29

1573545554332,$QZGSA,A,3,01,,,,,,,,,,,,1.6,1.0,1.2*2A

1573545554332,$IMGSA,A,3,,,,,,,,,,,,,1.6,1.0,1.2*24

1573545554332,$BDGSA,A,3,206,207,209,214,216,224,225,,,,,,1.6,1.0,1.2*1F

1573545554332,$GAGSA,A,3,102,103,108,125,130,,,,,,,,1.6,1.0,1.2*1A

1573545554332,$GPRMC,075915.00,A,3101.616948,N,12126.827717,E,000.0,113.2,121119,,,A*56

1573545555331,$GPGGA,075916.00,3101.617015,N,12126.827710,E,1,30,0.4,16.9,M,9.7,M,,*6D

1573545555336,$GPGSV,3,1,10,10,77,274,40,20,59,179,28,25,51,145,27,32,43,318,23*7E

1573545555337,$GPGSV,3,2,10,12,43,073,44,24,28,046,39*7D

1573545555337,$GPGSV,3,3,10,10,,,40,25,,,26,32,,,18,24,,,36,8*61

1573545555337,$GLGSV,1,1,04,76,79,218,36,65,55,099,37,75,46,030,41,66,44,341,26*63

1573545555337,$QZGSV,2,1,02,01,66,134,29*58

1573545555338,$QZGSV,2,2,02,01,,,30,8*71

1573545555338,$BDGSV,3,1,10,225,82,249,36,206,65,009,32,216,63,356,35,203,51,200,*60

1573545555338,$BDGSV,3,2,10,209,49,318,26,201,47,148,,207,45,176,26,214,38,130,38*68

1573545555338,$BDGSV,3,3,10,224,38,042,40,223,29,225,*69

1573545555339,$GAGSV,4,1,10,102,73,109,36,108,63,346,38,103,47,094,42,130,37,197,37*67

1573545555339,$GAGSV,4,2,10,125,30,043,39*67

1573545555339,$GAGSV,4,3,10,102,,,37,108,,,41,103,,,36,130,,,,1*7D

1573545555339,$GAGSV,4,4,10,125,,,34,1*45

1573545555339,$GPGSA,A,3,10,12,20,24,25,32,,,,,,,1.6,1.0,1.2*37

1573545555339,$GNGSA,A,3,10,12,20,24,25,32,,,,,,,1.6,1.0,1.2*29

1573545555339,$GNGSA,A,3,65,66,75,76,,,,,,,,,1.6,1.0,1.2*29

1573545555339,$QZGSA,A,3,01,,,,,,,,,,,,1.6,1.0,1.2*2A

1573545555339,$IMGSA,A,3,,,,,,,,,,,,,1.6,1.0,1.2*24

1573545555339,$BDGSA,A,3,206,207,209,214,216,224,225,,,,,,1.6,1.0,1.2*1F

1573545555339,$GAGSA,A,3,102,103,108,125,130,,,,,,,,1.6,1.0,1.2*1A

1573545555339,$GPRMC,075916.00,A,3101.617015,N,12126.827710,E,000.0,113.3,121119,,,A*53

1573545556337,$GPGGA,075917.00,3101.617073,N,12126.827663,E,1,34,0.4,17.0,M,9.7,M,,*65

1573545556340,$GPGSV,3,1,10,10,77,274,40,20,59,179,28,25,51,145,27,32,43,318,22*7F

1573545556340,$GPGSV,3,2,10,12,43,073,44,24,28,046,39*7D

1573545556340,$GPGSV,3,3,10,10,,,40,25,,,25,32,,,18,24,,,36,8*62

1573545556340,$GLGSV,1,1,04,76,79,218,36,65,55,099,37,75,46,030,41,66,44,341,26*63

1573545556340,$QZGSV,2,1,02,01,66,134,28*59

1573545556340,$QZGSV,2,2,02,01,,,30,8*71

1573545556340,$BDGSV,3,1,10,225,82,249,36,206,65,009,32,216,63,356,34,203,51,200,19*69

1573545556340,$BDGSV,3,2,10,209,49,318,26,201,47,148,,207,45,176,25,214,38,130,38*6B

1573545556340,$BDGSV,3,3,10,224,38,042,39,223,29,225,20*65

1573545556340,$GAGSV,4,1,10,102,73,109,36,108,63,347,38,103,47,094,42,130,37,197,37*66

1573545556340,$GAGSV,4,2,10,125,30,043,39*67

1573545556340,$GAGSV,4,3,10,102,,,37,108,,,42,103,,,36,130,,,,1*7E

1573545556340,$GAGSV,4,4,10,125,,,34,1*45

1573545556340,$GPGSA,A,3,10,12,20,24,25,32,,,,,,,1.5,1.0,1.1*37

1573545556340,$GNGSA,A,3,10,12,20,24,25,32,,,,,,,1.5,1.0,1.1*29

1573545556340,$GNGSA,A,3,65,66,75,76,,,,,,,,,1.5,1.0,1.1*29

1573545556340,$QZGSA,A,3,01,,,,,,,,,,,,1.5,1.0,1.1*2A

1573545556340,$IMGSA,A,3,,,,,,,,,,,,,1.5,1.0,1.1*24

1573545556340,$BDGSA,A,3,203,206,207,209,214,216,223,224,225,,,,1.5,1.0,1.1*1D

1573545556340,$GAGSA,A,3,102,103,108,125,130,,,,,,,,1.5,1.0,1.1*1A

1573545556340,$GPRMC,075917.00,A,3101.617073,N,12126.827663,E,000.0,113.3,121119,,,A*57

1573545557341,$GPGGA,075918.00,3101.617160,N,12126.827721,E,1,33,0.4,17.1,M,9.7,M,,*68

1573545557346,$GPGSV,3,1,10,10,77,274,40,20,59,179,27,25,51,145,26,32,43,318,22*71

1573545557346,$GPGSV,3,2,10,12,43,073,44,24,28,046,39*7D

1573545557346,$GPGSV,3,3,10,10,,,40,25,,,25,32,,,18,24,,,36,8*62

1573545557347,$GLGSV,1,1,04,76,79,218,36,65,55,099,36,75,46,030,41,66,44,341,25*61

1573545557347,$QZGSV,2,1,02,01,66,134,28*59

1573545557347,$QZGSV,2,2,02,01,,,30,8*71

1573545557347,$BDGSV,3,1,10,225,82,249,36,206,65,009,31,216,63,356,34,203,51,200,19*6A

1573545557347,$BDGSV,3,2,10,209,49,318,26,201,47,148,,207,45,176,24,214,38,130,38*6A

1573545557347,$BDGSV,3,3,10,224,38,042,39,223,29,225,20*65

1573545557347,$GAGSV,4,1,10,102,73,109,35,108,63,347,38,103,47,094,42,130,37,197,37*65

1573545557347,$GAGSV,4,2,10,125,30,043,39*67

1573545557347,$GAGSV,4,3,10,102,,,38,108,,,42,103,,,36,130,,,,1*71

1573545557347,$GAGSV,4,4,10,125,,,34,1*45

1573545557347,$GPGSA,A,3,10,12,20,24,25,32,,,,,,,1.5,0.9,1.2*3C

1573545557347,$GNGSA,A,3,10,12,20,24,25,32,,,,,,,1.5,0.9,1.2*22

1573545557347,$GNGSA,A,3,65,66,75,76,,,,,,,,,1.5,0.9,1.2*22

1573545557347,$QZGSA,A,3,01,,,,,,,,,,,,1.5,0.9,1.2*21

1573545557347,$IMGSA,A,3,,,,,,,,,,,,,1.5,0.9,1.2*2F

1573545557347,$BDGSA,A,3,203,206,207,209,214,216,223,224,225,,,,1.5,0.9,1.2*16

1573545557348,$GAGSA,A,3,102,103,108,125,130,,,,,,,,1.5,0.9,1.2*11

1573545557348,$GPRMC,075918.00,A,3101.617160,N,12126.827721,E,000.0,113.3,121119,,,A*5C

1573545558337,$GPGGA,075919.00,3101.617151,N,12126.827694,E,1,33,0.4,17.0,M,9.7,M,,*65

1573545558340,$GPGSV,3,1,10,10,77,274,40,20,59,179,27,25,51,145,26,32,43,318,21*72

1573545558340,$GPGSV,3,2,10,12,43,073,44,24,28,046,38*7C

1573545558340,$GPGSV,3,3,10,10,,,40,25,,,25,32,,,18,24,,,36,8*62

1573545558340,$GLGSV,1,1,04,76,79,218,35,65,55,099,36,75,46,030,40,66,44,341,25*63

1573545558340,$QZGSV,2,1,02,01,66,134,27*56

1573545558340,$QZGSV,2,2,02,01,,,30,8*71

1573545558340,$BDGSV,3,1,10,225,82,249,35,206,65,009,30,216,63,356,34,203,51,200,19*68

1573545558340,$BDGSV,3,2,10,209,49,318,25,201,47,148,,207,45,176,23,214,38,130,37*61

1573545558340,$BDGSV,3,3,10,224,38,042,39,223,29,225,20*65

1573545558340,$GAGSV,4,1,10,102,73,109,35,108,63,347,37,103,47,094,41,130,37,197,37*69

1573545558340,$GAGSV,4,2,10,125,30,043,38*66

1573545558341,$GAGSV,4,3,10,102,,,37,108,,,41,103,,,37,130,,,,1*7C

1573545558341,$GAGSV,4,4,10,125,,,34,1*45

1573545558341,$GPGSA,A,3,10,12,20,24,25,32,,,,,,,1.6,1.0,1.2*37

1573545558341,$GNGSA,A,3,10,12,20,24,25,32,,,,,,,1.6,1.0,1.2*29

1573545558341,$GNGSA,A,3,65,66,75,76,,,,,,,,,1.6,1.0,1.2*29

1573545558341,$QZGSA,A,3,01,,,,,,,,,,,,1.6,1.0,1.2*2A

1573545558341,$IMGSA,A,3,,,,,,,,,,,,,1.6,1.0,1.2*24

1573545558341,$BDGSA,A,3,203,206,207,209,214,216,223,224,225,,,,1.6,1.0,1.2*1D

1573545558341,$GAGSA,A,3,102,103,108,125,130,,,,,,,,1.6,1.0,1.2*1A

1573545558341,$GPRMC,075919.00,A,3101.617151,N,12126.827694,E,000.0,113.3,121119,,,A*50

1573545559338,$GPGGA,075920.00,3101.617179,N,12126.827707,E,1,32,0.6,17.0,M,9.7,M,,*6D

1573545559344,$GPGSV,3,1,11,10,77,274,40,20,59,179,26,25,51,145,26,32,43,318,21*72

1573545559344,$GPGSV,3,2,11,12,43,073,43,24,28,046,38,31,23,243,35*4A

1573545559345,$GPGSV,3,3,11,10,,,40,25,,,25,32,,,17,24,,,35,8*6F

1573545559345,$GLGSV,1,1,04,76,79,218,35,65,55,099,35,75,46,030,40,66,44,341,25*60

1573545559345,$QZGSV,2,1,02,01,66,134,27*56

1573545559345,$QZGSV,2,2,02,01,,,29,8*79

1573545559345,$BDGSV,3,1,11,225,82,249,35,206,65,009,30,216,63,356,34,203,51,200,19*69

1573545559345,$BDGSV,3,2,11,209,49,318,25,201,47,148,,207,45,176,22,214,38,130,37*61

1573545559345,$BDGSV,3,3,11,224,38,042,39,223,29,225,,210,23,196,23*6B

1573545559345,$GAGSV,3,1,08,102,73,109,35,108,63,347,37,103,47,094,41,130,37,197,36*66

1573545559345,$GAGSV,3,2,08,125,30,043,38*68

1573545559345,$GAGSV,3,3,08,102,,,35,108,,,41,103,,,35,1*40

1573545559345,$GPGSA,A,3,10,12,20,24,25,31,32,,,,,,1.6,0.9,1.3*3C

1573545559345,$GNGSA,A,3,10,12,20,24,25,31,32,,,,,,1.6,0.9,1.3*22

1573545559345,$GNGSA,A,3,65,66,75,76,,,,,,,,,1.6,0.9,1.3*20

1573545559345,$QZGSA,A,3,01,,,,,,,,,,,,1.6,0.9,1.3*23

1573545559345,$IMGSA,A,3,,,,,,,,,,,,,1.6,0.9,1.3*2D

1573545559345,$BDGSA,A,3,203,206,207,209,210,214,216,224,225,,,,1.6,0.9,1.3*14

1573545559345,$GAGSA,A,3,102,103,108,125,130,,,,,,,,1.6,0.9,1.3*13

1573545559346,$GPRMC,075920.00,A,3101.617179,N,12126.827707,E,000.0,113.3,121119,,,A*5B

1573545560320,$GPGGA,075921.00,3101.617214,N,12126.827728,E,1,32,0.6,17.1,M,9.7,M,,*68

1573545560325,$GPGSV,3,1,11,10,77,274,40,20,59,179,26,25,51,145,25,32,43,318,21*71

1573545560325,$GPGSV,3,2,11,12,43,073,43,24,28,046,38,31,23,243,35*4A

1573545560325,$GPGSV,3,3,11,10,,,40,25,,,24,32,,,17,24,,,35,8*6E

1573545560326,$GLGSV,1,1,04,76,79,218,35,65,55,099,35,75,46,030,40,66,44,341,24*61

1573545560326,$QZGSV,2,1,02,01,66,134,27*56

1573545560326,$QZGSV,2,2,02,01,,,29,8*79

1573545560326,$BDGSV,3,1,11,225,82,249,35,206,65,009,29,216,63,356,33,203,51,200,24*68

1573545560326,$BDGSV,3,2,11,209,49,318,25,201,47,148,,207,45,176,22,214,38,130,37*61

1573545560326,$BDGSV,3,3,11,224,38,042,40,223,29,225,18,210,23,196,23*6C

1573545560326,$GAGSV,3,1,08,102,73,109,35,108,63,347,37,103,47,094,41,130,37,197,35*65

1573545560326,$GAGSV,3,2,08,125,30,043,38*68

1573545560326,$GAGSV,3,3,08,102,,,36,108,,,41,103,,,35,1*43

1573545560326,$GPGSA,A,3,10,12,20,24,25,31,32,,,,,,1.6,0.9,1.3*3C

1573545560326,$GNGSA,A,3,10,12,20,24,25,31,32,,,,,,1.6,0.9,1.3*22

1573545560326,$GNGSA,A,3,65,66,75,76,,,,,,,,,1.6,0.9,1.3*20

1573545560326,$QZGSA,A,3,01,,,,,,,,,,,,1.6,0.9,1.3*23

1573545560326,$IMGSA,A,3,,,,,,,,,,,,,1.6,0.9,1.3*2D

1573545560326,$BDGSA,A,3,203,206,207,209,210,214,216,223,224,225,,,1.6,0.9,1.3*27

1573545560326,$GAGSA,A,3,102,103,108,125,130,,,,,,,,1.6,0.9,1.3*13

1573545560327,$GPRMC,075921.00,A,3101.617214,N,12126.827728,E,000.0,113.3,121119,,,A*5F

1573545561326,$GPGGA,075922.00,3101.617186,N,12126.827768,E,1,33,0.6,17.0,M,9.7,M,,*67

1573545561330,$GPGSV,3,1,11,10,77,274,40,20,59,179,26,25,51,145,28,32,43,318,20*7D

1573545561330,$GPGSV,3,2,11,12,43,073,43,24,28,046,37,31,23,243,35*45

1573545561331,$GPGSV,3,3,11,10,,,40,25,,,24,32,,,17,24,,,35,8*6E

1573545561331,$GLGSV,1,1,04,76,79,218,34,65,55,099,35,75,46,030,40,66,44,341,24*60

1573545561331,$QZGSV,2,1,02,01,66,134,26*57

1573545561331,$QZGSV,2,2,02,01,,,29,8*79

1573545561331,$BDGSV,3,1,10,225,82,249,35,206,65,009,29,216,63,356,33,203,51,200,24*69

1573545561331,$BDGSV,3,2,10,209,49,318,25,201,47,148,,207,45,176,21,214,38,130,37*63

1573545561331,$BDGSV,3,3,10,224,38,042,39,223,29,225,18*6E

1573545561331,$GAGSV,3,1,09,102,73,109,35,108,63,347,37,103,47,094,41,130,37,197,34*65

1573545561331,$GAGSV,3,2,09,125,30,043,38*69

1573545561331,$GAGSV,3,3,09,102,,,36,108,,,41,103,,,35,125,,,32,1*75

1573545561332,$GPGSA,A,3,10,12,20,24,25,31,32,,,,,,1.6,1.0,1.2*35

1573545561332,$GNGSA,A,3,10,12,20,24,25,31,32,,,,,,1.6,1.0,1.2*2B

1573545561332,$GNGSA,A,3,65,66,75,76,,,,,,,,,1.6,1.0,1.2*29

1573545561332,$QZGSA,A,3,01,,,,,,,,,,,,1.6,1.0,1.2*2A

1573545561332,$IMGSA,A,3,,,,,,,,,,,,,1.6,1.0,1.2*24

1573545561332,$BDGSA,A,3,203,206,207,209,214,216,223,224,225,,,,1.6,1.0,1.2*1D

1573545561332,$GAGSA,A,3,102,103,108,125,130,,,,,,,,1.6,1.0,1.2*1A

1573545561332,$GPRMC,075922.00,A,3101.617186,N,12126.827768,E,000.0,113.3,121119,,,A*50

1573545562324,$GPGGA,075923.00,3101.617095,N,12126.827849,E,1,29,0.6,16.8,M,9.7,M,,*6B

1573545562325,$GPGSV,3,1,10,10,77,274,40,20,59,179,26,25,51,145,28,32,43,318,19*76

1573545562325,$GPGSV,3,2,10,12,43,073,43,24,28,046,37*74

1573545562326,$GPGSV,3,3,10,10,,,40,25,,,24,32,,,17,24,,,35,8*6F

1573545562326,$GLGSV,1,1,04,76,79,218,34,65,55,099,35,75,46,030,40,66,44,341,24*60

1573545562326,$QZGSV,2,1,02,01,66,134,26*57

1573545562326,$QZGSV,2,2,02,01,,,29,8*79

1573545562326,$BDGSV,3,1,10,225,82,249,34,206,65,009,29,216,63,356,33,203,51,200,25*69

1573545562326,$BDGSV,3,2,10,209,49,318,24,201,47,148,,207,45,176,20,214,38,130,37*63

1573545562326,$BDGSV,3,3,10,224,38,042,39,223,29,225,17*61

1573545562326,$GAGSV,4,1,10,102,73,109,35,108,63,347,37,103,47,094,41,130,37,197,34*6A

1573545562326,$GAGSV,4,2,10,125,30,043,38*66

1573545562326,$GAGSV,4,3,10,102,,,36,108,,,41,103,,,35,130,,,18,1*76

1573545562326,$GAGSV,4,4,10,125,,,34,1*45

1573545562326,$GPGSA,A,3,10,12,20,24,25,32,,,,,,,2.2,1.3,1.8*39

1573545562326,$GNGSA,A,3,10,12,20,24,25,32,,,,,,,2.2,1.3,1.8*27

1573545562326,$GNGSA,A,3,65,66,75,76,,,,,,,,,2.2,1.3,1.8*27

1573545562326,$QZGSA,A,3,01,,,,,,,,,,,,2.2,1.3,1.8*24

1573545562326,$IMGSA,A,3,,,,,,,,,,,,,2.2,1.3,1.8*2A

1573545562326,$BDGSA,A,3,203,206,209,214,216,224,225,,,,,,2.2,1.3,1.8*15

1573545562326,$GAGSA,A,3,102,103,108,125,130,,,,,,,,2.2,1.3,1.8*14

1573545562327,$GPRMC,075923.00,A,3101.617095,N,12126.827849,E,000.0,113.4,121119,,,A*59

1573545563330,$GPGGA,075924.00,3101.617159,N,12126.827973,E,1,30,0.4,17.1,M,9.7,M,,*67

1573545563335,$GPGSV,3,1,10,10,77,274,40,20,59,179,26,25,51,145,28,32,43,318,18*77

1573545563335,$GPGSV,3,2,10,12,43,073,42,24,28,046,37*75

1573545563335,$GPGSV,3,3,10,10,,,40,25,,,23,32,,,17,24,,,35,8*68

1573545563336,$GLGSV,1,1,04,76,79,218,34,65,55,099,35,75,46,030,40,66,44,341,24*60

1573545563336,$QZGSV,2,1,02,01,66,134,25*54

1573545563336,$QZGSV,2,2,02,01,,,29,8*79

1573545563336,$BDGSV,3,1,10,225,82,249,34,206,65,009,29,216,63,356,33,203,51,200,25*69

1573545563336,$BDGSV,3,2,10,209,49,318,24,201,47,148,,207,45,176,19,214,38,130,36*68

1573545563337,$BDGSV,3,3,10,224,38,042,39,223,29,225,17*61

1573545563337,$GAGSV,4,1,10,102,73,109,35,108,63,347,37,103,47,094,41,130,37,197,34*6A

1573545563337,$GAGSV,4,2,10,125,30,043,38*66

1573545563337,$GAGSV,4,3,10,102,,,36,108,,,41,103,,,35,130,,,17,1*79

1573545563337,$GAGSV,4,4,10,125,,,34,1*45

1573545563337,$GPGSA,A,3,10,12,20,24,25,32,,,,,,,1.6,1.0,1.2*37

1573545563337,$GNGSA,A,3,10,12,20,24,25,32,,,,,,,1.6,1.0,1.2*29

1573545563337,$GNGSA,A,3,65,66,75,76,,,,,,,,,1.6,1.0,1.2*29

1573545563337,$QZGSA,A,3,01,,,,,,,,,,,,1.6,1.0,1.2*2A

1573545563337,$IMGSA,A,3,,,,,,,,,,,,,1.6,1.0,1.2*24

1573545563337,$BDGSA,A,3,203,206,209,214,216,224,225,,,,,,1.6,1.0,1.2*1B

1573545563337,$GAGSA,A,3,102,103,108,125,130,,,,,,,,1.6,1.0,1.2*1A

1573545563337,$GPRMC,075924.00,A,3101.617159,N,12126.827973,E,000.0,113.4,121119,,,A*57

1573545564330,$GPGGA,075925.00,3101.617153,N,12126.828102,E,1,31,0.6,17.1,M,9.7,M,,*6E

1573545564335,$GPGSV,3,1,10,10,77,273,40,20,59,179,26,25,51,145,28,32,43,318,18*70

1573545564336,$GPGSV,3,2,10,12,43,073,42,24,28,046,37*75

1573545564336,$GPGSV,3,3,10,10,,,40,25,,,23,32,,,17,24,,,35,8*68

1573545564336,$GLGSV,1,1,04,76,79,218,34,65,55,099,34,75,46,030,41,66,44,341,24*60

1573545564336,$QZGSV,2,1,02,01,66,134,25*54

1573545564336,$QZGSV,2,2,02,01,,,29,8*79

1573545564337,$BDGSV,3,1,10,225,82,250,34,206,65,009,29,216,63,356,33,203,51,200,26*62

1573545564337,$BDGSV,3,2,10,209,49,318,25,201,47,148,17,207,45,176,18,214,38,130,36*6E

1573545564337,$BDGSV,3,3,10,224,38,042,39,223,29,225,17*61

1573545564338,$GAGSV,4,1,10,102,73,109,34,108,63,347,37,103,47,094,41,130,37,197,33*6C

1573545564338,$GAGSV,4,2,10,125,30,043,38*66

1573545564338,$GAGSV,4,3,10,102,,,36,108,,,41,103,,,35,130,,,17,1*79

1573545564338,$GAGSV,4,4,10,125,,,33,1*42

1573545564339,$GPGSA,A,3,10,12,20,24,25,32,,,,,,,1.7,1.2,1.2*34

1573545564340,$GNGSA,A,3,10,12,20,24,25,32,,,,,,,1.7,1.2,1.2*2A

1573545564340,$GNGSA,A,3,65,66,75,76,,,,,,,,,1.7,1.2,1.2*2A

1573545564340,$QZGSA,A,3,01,,,,,,,,,,,,1.7,1.2,1.2*29

1573545564340,$IMGSA,A,3,,,,,,,,,,,,,1.7,1.2,1.2*27

1573545564340,$BDGSA,A,3,201,203,206,209,214,216,223,224,225,,,,1.7,1.2,1.2*18

1573545564340,$GAGSA,A,3,102,103,108,125,130,,,,,,,,1.7,1.2,1.2*19

1573545564340,$GPRMC,075925.00,A,3101.617153,N,12126.828102,E,000.1,113.4,121119,,,A*5C

1573545565331,$GPGGA,075926.00,3101.617116,N,12126.828195,E,1,30,0.6,17.1,M,9.7,M,,*63

1573545565333,$GPGSV,3,1,10,10,77,273,40,20,59,179,26,25,51,145,28,32,43,318,17*7F

1573545565333,$GPGSV,3,2,10,12,43,073,42,24,28,046,36*74

1573545565333,$GPGSV,3,3,10,10,,,40,25,,,22,32,,,17,24,,,34,8*68

1573545565333,$GLGSV,1,1,04,76,79,218,34,65,55,100,34,75,46,030,40,66,44,341,24*60

1573545565333,$QZGSV,2,1,02,01,66,134,25*54

1573545565333,$QZGSV,2,2,02,01,,,28,8*78

1573545565333,$BDGSV,3,1,10,225,82,250,34,206,65,009,29,216,63,356,33,203,51,200,26*62

1573545565333,$BDGSV,3,2,10,209,49,318,25,201,47,148,,207,45,176,17,214,38,130,36*67

1573545565333,$BDGSV,3,3,10,224,38,042,39,223,29,225,23*66

1573545565334,$GAGSV,4,1,10,102,73,109,34,108,63,347,37,103,47,094,41,130,37,197,33*6C

1573545565334,$GAGSV,4,2,10,125,30,043,38*66

1573545565334,$GAGSV,4,3,10,102,,,36,108,,,41,103,,,35,130,,,,1*7F

1573545565334,$GAGSV,4,4,10,125,,,33,1*42

1573545565334,$GPGSA,A,3,10,12,20,24,25,32,,,,,,,1.7,1.2,1.2*34

1573545565334,$GNGSA,A,3,10,12,20,24,25,32,,,,,,,1.7,1.2,1.2*2A

1573545565334,$GNGSA,A,3,65,66,75,76,,,,,,,,,1.7,1.2,1.2*2A

1573545565334,$QZGSA,A,3,01,,,,,,,,,,,,1.7,1.2,1.2*29

1573545565334,$IMGSA,A,3,,,,,,,,,,,,,1.7,1.2,1.2*27

1573545565334,$BDGSA,A,3,203,206,209,214,216,223,224,225,,,,,1.7,1.2,1.2*2B

1573545565334,$GAGSA,A,3,102,103,108,125,130,,,,,,,,1.7,1.2,1.2*19

1573545565334,$GPRMC,075926.00,A,3101.617116,N,12126.828195,E,000.0,113.4,121119,,,A*51

1573545566335,$GPGGA,075927.00,3101.617140,N,12126.828292,E,1,31,0.6,17.3,M,9.7,M,,*66

1573545566340,$GPGSV,3,1,10,10,77,273,40,20,59,179,26,25,51,145,30,32,43,318,16*77

1573545566341,$GPGSV,3,2,10,12,43,073,42,24,28,046,36*74

1573545566341,$GPGSV,3,3,10,10,,,40,25,,,22,32,,,17,24,,,34,8*68

1573545566341,$GLGSV,1,1,04,76,79,218,34,65,55,100,34,75,46,030,40,66,44,341,24*60

1573545566342,$QZGSV,2,1,02,01,66,134,25*54

1573545566342,$QZGSV,2,2,02,01,,,28,8*78

1573545566342,$BDGSV,3,1,10,225,82,250,34,206,65,009,29,216,63,356,33,203,51,200,25*61

1573545566342,$BDGSV,3,2,10,209,49,318,25,201,47,148,,207,45,176,,214,38,130,36*61

1573545566343,$BDGSV,3,3,10,224,38,042,39,223,29,225,24*61

1573545566343,$GAGSV,4,1,10,102,73,108,34,108,63,347,36,103,47,094,40,130,37,197,33*6D

1573545566343,$GAGSV,4,2,10,125,30,043,38*66

1573545566343,$GAGSV,4,3,10,102,,,36,108,,,41,103,,,35,130,,,15,1*7B

1573545566344,$GAGSV,4,4,10,125,,,33,1*42

1573545566344,$GPGSA,A,3,10,12,20,24,25,32,,,,,,,1.7,1.2,1.2*34

1573545566344,$GNGSA,A,3,10,12,20,24,25,32,,,,,,,1.7,1.2,1.2*2A

1573545566344,$GNGSA,A,3,65,66,75,76,,,,,,,,,1.7,1.2,1.2*2A

1573545566344,$QZGSA,A,3,01,,,,,,,,,,,,1.7,1.2,1.2*29

1573545566344,$IMGSA,A,3,,,,,,,,,,,,,1.7,1.2,1.2*27

1573545566344,$BDGSA,A,3,203,206,209,214,216,223,224,225,,,,,1.7,1.2,1.2*2B

1573545566344,$GAGSA,A,3,102,103,108,125,130,,,,,,,,1.7,1.2,1.2*19

1573545566344,$GPRMC,075927.00,A,3101.617140,N,12126.828292,E,000.0,113.4,121119,,,A*57

1573545567329,$GPGGA,075928.00,3101.617127,N,12126.828345,E,1,31,0.6,17.2,M,9.7,M,,*62

1573545567332,$GPGSV,3,1,10,10,77,273,40,20,59,179,26,25,51,145,30,32,43,318,16*77

1573545567332,$GPGSV,3,2,10,12,43,073,42,24,28,046,36*74

1573545567332,$GPGSV,3,3,10,10,,,40,25,,,22,32,,,19,24,,,34,8*66

1573545567332,$GLGSV,1,1,04,76,79,218,33,65,55,100,34,75,46,030,40,66,44,341,24*67

1573545567332,$QZGSV,2,1,02,01,66,134,25*54

1573545567332,$QZGSV,2,2,02,01,,,28,8*78

1573545567332,$BDGSV,3,1,10,225,82,250,34,206,65,009,30,216,63,356,32,203,51,200,25*68

1573545567332,$BDGSV,3,2,10,209,49,318,25,201,47,148,,207,45,176,16,214,38,130,36*66

1573545567332,$BDGSV,3,3,10,224,38,042,39,223,29,225,24*61

1573545567332,$GAGSV,4,1,10,102,73,108,34,108,63,347,36,103,47,094,40,130,37,197,33*6D

1573545567332,$GAGSV,4,2,10,125,30,043,39*67

1573545567332,$GAGSV,4,3,10,102,,,36,108,,,41,103,,,35,130,,,,1*7F

1573545567332,$GAGSV,4,4,10,125,,,33,1*42

1573545567332,$GPGSA,A,3,10,12,20,24,25,32,,,,,,,1.7,1.2,1.2*34

1573545567332,$GNGSA,A,3,10,12,20,24,25,32,,,,,,,1.7,1.2,1.2*2A

1573545567332,$GNGSA,A,3,65,66,75,76,,,,,,,,,1.7,1.2,1.2*2A

1573545567332,$QZGSA,A,3,01,,,,,,,,,,,,1.7,1.2,1.2*29

1573545567333,$IMGSA,A,3,,,,,,,,,,,,,1.7,1.2,1.2*27

1573545567333,$BDGSA,A,3,203,206,209,214,216,223,224,225,,,,,1.7,1.2,1.2*2B

1573545567333,$GAGSA,A,3,102,103,108,125,130,,,,,,,,1.7,1.2,1.2*19

1573545567333,$GPRMC,075928.00,A,3101.617127,N,12126.828345,E,000.0,113.4,121119,,,A*52

1573545568329,$GPGGA,075929.00,3101.617094,N,12126.828332,E,1,30,0.4,17.2,M,9.7,M,,*69

1573545568331,$GPGSV,3,1,10,10,77,273,40,20,59,179,27,25,51,145,30,32,43,318,15*75

1573545568331,$GPGSV,3,2,10,12,43,073,43,24,28,046,35*76

1573545568331,$GPGSV,3,3,10,10,,,40,25,,,21,32,,,18,24,,,34,8*64

1573545568331,$GLGSV,1,1,04,76,79,218,33,65,55,100,34,75,46,030,40,66,44,341,24*67

1573545568331,$QZGSV,2,1,02,01,66,134,25*54

1573545568331,$QZGSV,2,2,02,01,,,28,8*78

1573545568331,$BDGSV,3,1,10,225,82,250,34,206,65,009,30,216,63,356,32,203,51,200,25*68

1573545568331,$BDGSV,3,2,10,209,49,318,25,201,47,148,,207,45,176,15,214,38,130,36*65

1573545568331,$BDGSV,3,3,10,224,38,042,39,223,29,225,24*61

1573545568331,$GAGSV,4,1,10,102,73,108,34,108,63,347,36,103,47,094,40,130,37,197,33*6D

1573545568331,$GAGSV,4,2,10,125,30,043,39*67

1573545568331,$GAGSV,4,3,10,102,,,36,108,,,41,103,,,35,130,,,14,1*7A

1573545568331,$GAGSV,4,4,10,125,,,33,1*42

1573545568331,$GPGSA,A,3,10,12,20,24,25,32,,,,,,,1.6,1.0,1.2*37

1573545568331,$GNGSA,A,3,10,12,20,24,25,32,,,,,,,1.6,1.0,1.2*29

1573545568332,$GNGSA,A,3,65,66,75,76,,,,,,,,,1.6,1.0,1.2*29

1573545568332,$QZGSA,A,3,01,,,,,,,,,,,,1.6,1.0,1.2*2A

1573545568332,$IMGSA,A,3,,,,,,,,,,,,,1.6,1.0,1.2*24

1573545568332,$BDGSA,A,3,203,206,209,214,216,223,224,225,,,,,1.6,1.0,1.2*28

1573545568332,$GAGSA,A,3,102,103,108,125,130,,,,,,,,1.6,1.0,1.2*1A

1573545568332,$GPRMC,075929.00,A,3101.617094,N,12126.828332,E,000.0,113.4,121119,,,A*5A

1573545569333,$GPGGA,075930.00,3101.617058,N,12126.828321,E,1,32,0.6,17.0,M,9.7,M,,*61

1573545569338,$GPGSV,3,1,10,10,77,273,40,20,59,179,27,25,51,145,30,32,43,318,15*75

1573545569338,$GPGSV,3,2,10,12,43,073,43,24,28,046,35*76

1573545569338,$GPGSV,3,3,10,10,,,40,25,,,21,32,,,18,24,,,33,8*63

1573545569338,$GLGSV,1,1,04,76,79,218,33,65,55,100,35,75,46,030,40,66,44,341,25*67

1573545569339,$QZGSV,2,1,02,01,66,134,25*54

1573545569339,$QZGSV,2,2,02,01,,,28,8*78

1573545569339,$BDGSV,3,1,10,225,82,250,34,206,65,009,30,216,63,356,32,203,51,200,25*68

1573545569339,$BDGSV,3,2,10,209,49,318,25,201,47,148,,207,45,176,14,214,38,130,35*67

1573545569340,$BDGSV,3,3,10,224,38,042,39,223,29,225,24*61

1573545569340,$GAGSV,4,1,10,102,73,108,34,108,63,347,36,103,47,094,40,130,37,197,33*6D

1573545569340,$GAGSV,4,2,10,125,30,043,39*67

1573545569340,$GAGSV,4,3,10,102,,,35,108,,,41,103,,,35,130,,,13,1*7E

1573545569340,$GAGSV,4,4,10,125,,,33,1*42

1573545569341,$GPGSA,A,3,10,12,20,24,25,32,,,,,,,1.7,1.2,1.2*34

1573545569341,$GNGSA,A,3,10,12,20,24,25,32,,,,,,,1.7,1.2,1.2*2A

1573545569341,$GNGSA,A,3,65,66,75,76,,,,,,,,,1.7,1.2,1.2*2A

1573545569342,$QZGSA,A,3,01,,,,,,,,,,,,1.7,1.2,1.2*29

1573545569342,$IMGSA,A,3,,,,,,,,,,,,,1.7,1.2,1.2*27

1573545569342,$BDGSA,A,3,203,206,209,214,216,223,224,225,,,,,1.7,1.2,1.2*2B

1573545569342,$GAGSA,A,3,102,103,108,125,130,,,,,,,,1.7,1.2,1.2*19

1573545569342,$GPRMC,075930.00,A,3101.617058,N,12126.828321,E,000.0,113.4,121119,,,A*50

1573545570331,$GPGGA,075931.00,3101.617047,N,12126.828339,E,1,31,0.6,17.0,M,9.7,M,,*64

1573545570336,$GPGSV,3,1,10,10,77,273,40,20,59,179,27,25,51,145,30,32,43,318,14*74

1573545570337,$GPGSV,3,2,10,12,43,073,44,24,28,046,35*71

1573545570337,$GPGSV,3,3,10,10,,,40,25,,,21,32,,,18,24,,,33,8*63

1573545570337,$GLGSV,1,1,04,76,79,218,33,65,55,100,35,75,46,030,40,66,44,341,25*67

1573545570337,$QZGSV,2,1,02,01,66,134,25*54

1573545570337,$QZGSV,2,2,02,01,,,28,8*78

1573545570338,$BDGSV,3,1,10,225,82,250,34,206,65,009,30,216,63,356,32,203,51,200,25*68

1573545570338,$BDGSV,3,2,10,209,49,318,24,201,47,148,,207,45,176,14,214,38,130,35*66

1573545570338,$BDGSV,3,3,10,224,38,042,39,223,29,225,26*63

1573545570338,$GAGSV,4,1,10,102,73,108,34,108,63,347,36,103,47,094,40,130,37,197,33*6D

1573545570339,$GAGSV,4,2,10,125,30,043,39*67

1573545570339,$GAGSV,4,3,10,102,,,35,108,,,40,103,,,35,130,,,12,1*7E

1573545570339,$GAGSV,4,4,10,125,,,33,1*42

1573545570339,$GPGSA,A,3,10,12,20,24,25,32,,,,,,,1.6,1.0,1.2*37

1573545570339,$GNGSA,A,3,10,12,20,24,25,32,,,,,,,1.6,1.0,1.2*29

1573545570339,$GNGSA,A,3,65,66,75,76,,,,,,,,,1.6,1.0,1.2*29

1573545570339,$QZGSA,A,3,01,,,,,,,,,,,,1.6,1.0,1.2*2A

1573545570339,$IMGSA,A,3,,,,,,,,,,,,,1.6,1.0,1.2*24

1573545570339,$BDGSA,A,3,203,206,207,209,214,216,223,224,225,,,,1.6,1.0,1.2*1D

1573545570339,$GAGSA,A,3,102,103,108,125,130,,,,,,,,1.6,1.0,1.2*1A

1573545570340,$GPRMC,075931.00,A,3101.617047,N,12126.828339,E,000.0,113.4,121119,,,A*56

1573545571327,$GPGGA,075932.00,3101.617034,N,12126.828352,E,1,32,0.6,17.1,M,9.7,M,,*6C

1573545571332,$GPGSV,3,1,10,10,77,273,40,20,59,179,27,25,51,145,31,32,43,318,14*75

1573545571333,$GPGSV,3,2,10,12,43,073,44,24,28,046,35*71

1573545571333,$GPGSV,3,3,10,10,,,40,25,,,21,32,,,18,24,,,33,8*63

1573545571333,$GLGSV,1,1,04,76,79,218,33,65,55,100,35,75,46,030,40,66,44,341,24*66

1573545571333,$QZGSV,2,1,02,01,66,134,25*54

1573545571333,$QZGSV,2,2,02,01,,,28,8*78

1573545571333,$BDGSV,3,1,10,225,82,250,34,206,65,009,31,216,63,357,32,203,51,200,25*68

1573545571333,$BDGSV,3,2,10,209,49,318,24,201,47,148,,207,45,176,14,214,38,130,35*66

1573545571333,$BDGSV,3,3,10,224,38,042,39,223,29,225,26*63

1573545571333,$GAGSV,4,1,10,102,73,108,34,108,63,347,36,103,47,094,40,130,37,197,33*6D

1573545571333,$GAGSV,4,2,10,125,30,043,39*67

1573545571334,$GAGSV,4,3,10,102,,,35,108,,,40,103,,,35,130,,,,1*7D

1573545571334,$GAGSV,4,4,10,125,,,34,1*45

1573545571334,$GPGSA,A,3,10,12,20,24,25,32,,,,,,,1.6,1.0,1.2*37

1573545571334,$GNGSA,A,3,10,12,20,24,25,32,,,,,,,1.6,1.0,1.2*29

1573545571334,$GNGSA,A,3,65,66,75,76,,,,,,,,,1.6,1.0,1.2*29

1573545571334,$QZGSA,A,3,01,,,,,,,,,,,,1.6,1.0,1.2*2A

1573545571334,$IMGSA,A,3,,,,,,,,,,,,,1.6,1.0,1.2*24

1573545571334,$BDGSA,A,3,203,206,209,214,216,223,224,225,,,,,1.6,1.0,1.2*28

1573545571334,$GAGSA,A,3,102,103,108,125,130,,,,,,,,1.6,1.0,1.2*1A

1573545571334,$GPRMC,075932.00,A,3101.617034,N,12126.828352,E,000.0,113.4,121119,,,A*5C

1573545572322,$GPGGA,075933.00,3101.616996,N,12126.828302,E,1,31,0.6,16.9,M,9.7,M,,*62

1573545572325,$GPGSV,3,1,10,10,77,273,40,20,59,179,27,25,51,145,31,32,43,318,13*72

1573545572326,$GPGSV,3,2,10,12,43,073,44,24,28,046,35*71

1573545572326,$GPGSV,3,3,10,10,,,40,25,,,21,32,,,18,24,,,33,8*63

1573545572326,$GLGSV,1,1,04,76,79,218,33,65,55,100,36,75,46,030,40,66,44,341,24*65

1573545572326,$QZGSV,2,1,02,01,66,134,25*54

1573545572326,$QZGSV,2,2,02,01,,,28,8*78

1573545572326,$BDGSV,3,1,10,225,82,250,34,206,65,009,31,216,63,357,32,203,51,200,25*68

1573545572326,$BDGSV,3,2,10,209,49,318,24,201,47,148,12,207,45,176,15,214,38,130,35*64

1573545572326,$BDGSV,3,3,10,224,38,042,39,223,29,225,26*63

1573545572326,$GAGSV,4,1,10,102,73,108,34,108,63,347,36,103,47,094,39,130,37,197,32*62

1573545572326,$GAGSV,4,2,10,125,30,043,39*67

1573545572326,$GAGSV,4,3,10,102,,,35,108,,,40,103,,,35,130,,,,1*7D

1573545572327,$GAGSV,4,4,10,125,,,34,1*45

1573545572327,$GPGSA,A,3,10,12,20,24,25,32,,,,,,,1.6,1.0,1.2*37

1573545572327,$GNGSA,A,3,10,12,20,24,25,32,,,,,,,1.6,1.0,1.2*29

1573545572327,$GNGSA,A,3,65,66,75,76,,,,,,,,,1.6,1.0,1.2*29

1573545572327,$QZGSA,A,3,01,,,,,,,,,,,,1.6,1.0,1.2*2A

1573545572327,$IMGSA,A,3,,,,,,,,,,,,,1.6,1.0,1.2*24

1573545572327,$BDGSA,A,3,203,206,207,209,214,216,223,224,225,,,,1.6,1.0,1.2*1D

1573545572327,$GAGSA,A,3,102,103,108,125,130,,,,,,,,1.6,1.0,1.2*1A

1573545572327,$GPRMC,075933.00,A,3101.616996,N,12126.828302,E,000.0,113.4,121119,,,A*58

1573545573329,$GPGGA,075934.00,3101.616976,N,12126.828325,E,1,30,0.6,16.9,M,9.7,M,,*6F

1573545573335,$GPGSV,3,1,10,10,77,273,40,20,59,179,27,25,51,145,32,32,43,318,13*71

1573545573335,$GPGSV,3,2,10,12,43,073,44,24,28,046,35*71

1573545573336,$GPGSV,3,3,10,10,,,40,25,,,20,32,,,17,24,,,33,8*6D

1573545573336,$GLGSV,1,1,04,76,79,219,33,65,55,100,36,75,46,030,40,66,44,341,24*64

1573545573336,$QZGSV,2,1,02,01,66,134,25*54

1573545573336,$QZGSV,2,2,02,01,,,27,8*77

1573545573336,$BDGSV,3,1,10,225,82,250,34,206,65,009,31,216,63,357,32,203,51,200,24*69

1573545573336,$BDGSV,3,2,10,209,49,318,25,201,47,148,,207,45,176,14,214,38,130,35*67

1573545573336,$BDGSV,3,3,10,224,38,042,38,223,29,225,26*62

1573545573336,$GAGSV,4,1,10,102,73,108,34,108,63,347,36,103,47,094,39,130,37,197,32*62

1573545573336,$GAGSV,4,2,10,125,30,043,39*67

1573545573336,$GAGSV,4,3,10,102,,,35,108,,,40,103,,,35,130,,,,1*7D

1573545573336,$GAGSV,4,4,10,125,,,33,1*42

1573545573336,$GPGSA,A,3,10,12,20,24,25,32,,,,,,,1.7,1.2,1.2*34

1573545573336,$GNGSA,A,3,10,12,20,24,25,32,,,,,,,1.7,1.2,1.2*2A

1573545573336,$GNGSA,A,3,65,66,75,76,,,,,,,,,1.7,1.2,1.2*2A

1573545573336,$QZGSA,A,3,01,,,,,,,,,,,,1.7,1.2,1.2*29

1573545573337,$IMGSA,A,3,,,,,,,,,,,,,1.7,1.2,1.2*27

1573545573337,$BDGSA,A,3,203,206,209,214,216,223,224,225,,,,,1.7,1.2,1.2*2B

1573545573337,$GAGSA,A,3,102,103,108,125,130,,,,,,,,1.7,1.2,1.2*19

1573545573337,$GPRMC,075934.00,A,3101.616976,N,12126.828325,E,000.0,113.4,121119,,,A*54

1573545574328,$GPGGA,075935.00,3101.616963,N,12126.828328,E,1,33,0.6,16.9,M,9.7,M,,*64

1573545574336,$GPGSV,3,1,10,10,77,273,39,20,59,179,26,25,51,145,32,32,43,318,13*7E

1573545574336,$GPGSV,3,2,10,12,43,073,44,24,28,047,36*73

1573545574336,$GPGSV,3,3,10,10,,,40,25,,,20,32,,,17,24,,,33,8*6D

1573545574337,$GLGSV,1,1,04,76,79,219,33,65,55,100,36,75,46,030,39,66,44,341,24*6A

1573545574337,$QZGSV,2,1,02,01,66,134,25*54

1573545574337,$QZGSV,2,2,02,01,,,27,8*77

1573545574337,$BDGSV,3,1,10,225,82,250,33,206,65,009,31,216,63,357,32,203,51,200,24*6E

1573545574337,$BDGSV,3,2,10,209,49,318,25,201,47,148,,207,45,176,14,214,38,130,35*67

1573545574337,$BDGSV,3,3,10,224,38,042,39,223,29,225,26*63

1573545574337,$GAGSV,4,1,10,102,73,108,34,108,63,347,36,103,47,094,39,130,37,197,32*62

1573545574337,$GAGSV,4,2,10,125,30,043,39*67

1573545574337,$GAGSV,4,3,10,102,,,35,108,,,40,103,,,35,130,,,11,1*7D

1573545574337,$GAGSV,4,4,10,125,,,33,1*42

1573545574337,$GPGSA,A,3,10,12,20,24,25,32,,,,,,,2.0,1.2,1.6*34

1573545574337,$GNGSA,A,3,10,12,20,24,25,32,,,,,,,2.0,1.2,1.6*2A

1573545574337,$GNGSA,A,3,65,66,75,76,,,,,,,,,2.0,1.2,1.6*2A

1573545574337,$QZGSA,A,3,01,,,,,,,,,,,,2.0,1.2,1.6*29

1573545574337,$IMGSA,A,3,,,,,,,,,,,,,2.0,1.2,1.6*27

1573545574338,$BDGSA,A,3,203,206,207,209,214,216,223,224,225,,,,2.0,1.2,1.6*1E

1573545574338,$GAGSA,A,3,102,103,108,125,130,,,,,,,,2.0,1.2,1.6*19

1573545574338,$GPRMC,075935.00,A,3101.616963,N,12126.828328,E,000.0,113.5,121119,,,A*5D

1573545575326,$GPGGA,075936.00,3101.616926,N,12126.828316,E,1,32,0.6,16.9,M,9.7,M,,*6A

1573545575331,$GPGSV,3,1,10,10,77,273,39,20,59,179,26,25,51,145,32,32,43,318,12*7F

1573545575332,$GPGSV,3,2,10,12,43,073,43,24,28,047,36*74

1573545575332,$GPGSV,3,3,10,10,,,40,25,,,20,32,,,17,24,,,32,8*6C

1573545575332,$GLGSV,1,1,04,76,79,219,33,65,55,100,36,75,46,030,39,66,44,341,24*6A

1573545575333,$QZGSV,2,1,02,01,66,134,25*54

1573545575333,$QZGSV,2,2,02,01,,,27,8*77

1573545575333,$BDGSV,3,1,10,225,82,250,33,206,65,009,31,216,63,357,32,203,51,200,24*6E

1573545575334,$BDGSV,3,2,10,209,49,318,25,201,47,148,,207,45,176,14,214,38,130,34*66

1573545575334,$BDGSV,3,3,10,224,38,042,39,223,29,225,26*63

1573545575334,$GAGSV,4,1,10,102,73,108,34,108,63,347,36,103,47,094,39,130,37,197,31*61

1573545575334,$GAGSV,4,2,10,125,30,043,39*67

1573545575334,$GAGSV,4,3,10,102,,,35,108,,,40,103,,,35,130,,,,1*7D

1573545575334,$GAGSV,4,4,10,125,,,33,1*42

1573545575334,$GPGSA,A,3,10,12,20,24,25,32,,,,,,,2.0,1.2,1.6*34

1573545575334,$GNGSA,A,3,10,12,20,24,25,32,,,,,,,2.0,1.2,1.6*2A

1573545575334,$GNGSA,A,3,65,66,75,76,,,,,,,,,2.0,1.2,1.6*2A

1573545575334,$QZGSA,A,3,01,,,,,,,,,,,,2.0,1.2,1.6*29

1573545575334,$IMGSA,A,3,,,,,,,,,,,,,2.0,1.2,1.6*27

1573545575334,$BDGSA,A,3,203,206,207,209,214,216,223,224,225,,,,2.0,1.2,1.6*1E

1573545575334,$GAGSA,A,3,102,103,108,125,130,,,,,,,,2.0,1.2,1.6*19

1573545575334,$GPRMC,075936.00,A,3101.616926,N,12126.828316,E,000.0,113.5,121119,,,A*52

1573545576328,$GPGGA,075937.00,3101.616903,N,12126.828309,E,1,30,0.6,16.8,M,9.7,M,,*61

1573545576331,$GPGSV,3,1,10,10,77,273,39,20,59,179,26,25,51,145,31,32,43,318,12*7C

1573545576331,$GPGSV,3,2,10,12,43,073,44,24,28,047,36*73

1573545576331,$GPGSV,3,3,10,10,,,40,25,,,20,32,,,16,24,,,32,8*6D

1573545576331,$GLGSV,1,1,04,76,79,219,33,65,55,100,36,75,46,030,39,66,44,341,24*6A

1573545576331,$QZGSV,2,1,02,01,66,134,25*54

1573545576331,$QZGSV,2,2,02,01,,,27,8*77

1573545576331,$BDGSV,3,1,10,225,82,250,33,206,65,009,30,216,63,357,32,203,51,200,24*6F

1573545576331,$BDGSV,3,2,10,209,49,318,25,201,47,148,13,207,45,176,15,214,38,130,34*65

1573545576331,$BDGSV,3,3,10,224,38,042,38,223,29,225,26*62

1573545576332,$GAGSV,4,1,10,102,73,108,34,108,63,347,37,103,47,094,40,130,37,197,31*6E

1573545576332,$GAGSV,4,2,10,125,30,043,39*67

1573545576332,$GAGSV,4,3,10,102,,,35,108,,,40,103,,,35,130,,,10,1*7C

1573545576332,$GAGSV,4,4,10,125,,,33,1*42

1573545576332,$GPGSA,A,3,10,12,20,24,25,,,,,,,,1.7,1.2,1.2*35

1573545576332,$GNGSA,A,3,10,12,20,24,25,,,,,,,,1.7,1.2,1.2*2B

1573545576332,$GNGSA,A,3,65,66,75,76,,,,,,,,,1.7,1.2,1.2*2A

1573545576332,$QZGSA,A,3,01,,,,,,,,,,,,1.7,1.2,1.2*29

1573545576332,$IMGSA,A,3,,,,,,,,,,,,,1.7,1.2,1.2*27

1573545576332,$BDGSA,A,3,201,203,206,207,209,214,216,223,224,225,,,1.7,1.2,1.2*2D

1573545576332,$GAGSA,A,3,102,103,108,125,130,,,,,,,,1.7,1.2,1.2*19

1573545576332,$GPRMC,075937.00,A,3101.616903,N,12126.828309,E,000.0,113.5,121119,,,A*5A

1573545577327,$GPGGA,075938.00,3101.616877,N,12126.828288,E,1,31,0.6,16.6,M,9.7,M,,*6B

1573545577333,$GPGSV,3,1,10,10,77,273,39,20,59,179,26,25,51,145,31,32,43,318,14*7A

1573545577334,$GPGSV,3,2,10,12,43,073,44,24,28,047,35*70

1573545577334,$GPGSV,3,3,10,10,,,40,25,,,20,32,,,16,24,,,32,8*6D

1573545577334,$GLGSV,1,1,04,76,79,219,32,65,55,100,36,75,46,030,39,66,44,341,23*6C

1573545577334,$QZGSV,2,1,02,01,66,134,25*54

1573545577334,$QZGSV,2,2,02,01,,,27,8*77

1573545577334,$BDGSV,3,1,10,225,82,250,33,206,65,009,30,216,63,357,32,203,51,200,24*6F

1573545577334,$BDGSV,3,2,10,209,49,318,25,201,47,148,,207,45,176,17,214,38,130,34*65

1573545577334,$BDGSV,3,3,10,224,38,042,38,223,29,225,26*62

1573545577334,$GAGSV,4,1,10,102,73,108,34,108,63,347,37,103,47,094,39,130,37,197,31*60

1573545577334,$GAGSV,4,2,10,125,30,043,39*67

1573545577334,$GAGSV,4,3,10,102,,,35,108,,,40,103,,,35,130,,,10,1*7C

1573545577334,$GAGSV,4,4,10,125,,,33,1*42

1573545577334,$GPGSA,A,3,10,12,20,24,25,32,,,,,,,2.0,1.2,1.6*34

1573545577334,$GNGSA,A,3,10,12,20,24,25,32,,,,,,,2.0,1.2,1.6*2A

1573545577334,$GNGSA,A,3,65,66,75,76,,,,,,,,,2.0,1.2,1.6*2A

1573545577335,$QZGSA,A,3,01,,,,,,,,,,,,2.0,1.2,1.6*29

1573545577335,$IMGSA,A,3,,,,,,,,,,,,,2.0,1.2,1.6*27

1573545577335,$BDGSA,A,3,203,206,207,209,214,216,223,224,225,,,,2.0,1.2,1.6*1E

1573545577335,$GAGSA,A,3,102,103,108,125,130,,,,,,,,2.0,1.2,1.6*19

1573545577335,$GPRMC,075938.00,A,3101.616877,N,12126.828288,E,000.0,113.5,121119,,,A*5F

1573545578327,$GPGGA,075939.00,3101.616851,N,12126.828314,E,1,31,0.6,16.6,M,9.7,M,,*6A

1573545578333,$GPGSV,3,1,10,10,77,273,39,20,59,179,26,25,51,145,31,32,43,318,19*77

1573545578334,$GPGSV,3,2,10,12,43,073,44,24,28,047,35*70

1573545578334,$GPGSV,3,3,10,10,,,40,25,,,20,32,,,17,24,,,31,8*6F

1573545578334,$GLGSV,1,1,04,76,79,219,32,65,55,100,36,75,46,030,39,66,44,341,23*6C

1573545578335,$QZGSV,2,1,02,01,66,134,25*54

1573545578335,$QZGSV,2,2,02,01,,,27,8*77

1573545578335,$BDGSV,3,1,10,225,82,250,33,206,65,009,30,216,63,357,32,203,51,200,24*6F

1573545578335,$BDGSV,3,2,10,209,49,318,25,201,47,148,,207,45,176,17,214,38,130,34*65

1573545578335,$BDGSV,3,3,10,224,38,042,38,223,29,225,26*62

1573545578336,$GAGSV,4,1,10,102,73,108,33,108,63,347,37,103,47,094,40,130,37,197,30*68

1573545578336,$GAGSV,4,2,10,125,30,043,38*66

1573545578336,$GAGSV,4,3,10,102,,,35,108,,,40,103,,,35,130,,,10,1*7C

1573545578336,$GAGSV,4,4,10,125,,,33,1*42

1573545578336,$GPGSA,A,3,10,12,20,24,25,32,,,,,,,2.0,1.1,1.7*36

1573545578336,$GNGSA,A,3,10,12,20,24,25,32,,,,,,,2.0,1.1,1.7*28

1573545578336,$GNGSA,A,3,65,66,75,76,,,,,,,,,2.0,1.1,1.7*28

1573545578336,$QZGSA,A,3,01,,,,,,,,,,,,2.0,1.1,1.7*2B

1573545578336,$IMGSA,A,3,,,,,,,,,,,,,2.0,1.1,1.7*25

1573545578336,$BDGSA,A,3,203,206,207,209,214,216,223,224,225,,,,2.0,1.1,1.7*1C

1573545578336,$GAGSA,A,3,102,103,108,125,130,,,,,,,,2.0,1.1,1.7*1B

1573545578336,$GPRMC,075939.00,A,3101.616851,N,12126.828314,E,000.0,113.5,121119,,,A*5E

1573545579430,$GPGGA,075940.00,3101.616820,N,12126.828286,E,1,31,0.6,16.5,M,9.7,M,,*6B

1573545579433,$GPGSV,3,1,10,10,77,273,40,20,59,179,26,25,51,145,31,32,43,318,21*72

1573545579433,$GPGSV,3,2,10,12,43,073,44,24,28,047,35*70

1573545579434,$GPGSV,3,3,10,10,,,40,25,,,20,32,,,17,24,,,31,8*6F

1573545579434,$GLGSV,1,1,04,76,79,219,32,65,55,100,36,75,46,030,39,66,44,341,23*6C

1573545579434,$QZGSV,2,1,02,01,66,134,25*54

1573545579434,$QZGSV,2,2,02,01,,,27,8*77

1573545579434,$BDGSV,3,1,10,225,82,250,33,206,65,009,30,216,63,357,32,203,51,200,24*6F

1573545579434,$BDGSV,3,2,10,209,49,318,25,201,47,148,,207,45,176,17,214,38,130,33*62

1573545579434,$BDGSV,3,3,10,224,38,042,38,223,29,225,28*6C

1573545579434,$GAGSV,4,1,10,102,73,108,33,108,63,347,37,103,47,094,40,130,37,197,30*68

1573545579435,$GAGSV,4,2,10,125,30,043,38*66

1573545579435,$GAGSV,4,3,10,102,,,35,108,,,39,103,,,35,130,,,,1*73

1573545579435,$GAGSV,4,4,10,125,,,32,1*43

1573545579435,$GPGSA,A,3,10,12,20,24,25,32,,,,,,,1.6,1.0,1.2*37

1573545579435,$GNGSA,A,3,10,12,20,24,25,32,,,,,,,1.6,1.0,1.2*29

1573545579435,$GNGSA,A,3,65,66,75,76,,,,,,,,,1.6,1.0,1.2*29

1573545579435,$QZGSA,A,3,01,,,,,,,,,,,,1.6,1.0,1.2*2A

1573545579435,$IMGSA,A,3,,,,,,,,,,,,,1.6,1.0,1.2*24

1573545579435,$BDGSA,A,3,203,206,207,209,214,216,223,224,225,,,,1.6,1.0,1.2*1D

1573545579435,$GAGSA,A,3,102,103,108,125,130,,,,,,,,1.6,1.0,1.2*1A

1573545579435,$GPRMC,075940.00,A,3101.616820,N,12126.828286,E,000.0,113.5,121119,,,A*5C

1573545580420,$GPGGA,075941.00,3101.616791,N,12126.828272,E,1,30,0.6,16.4,M,9.7,M,,*64

1573545580423,$GPGSV,3,1,10,10,77,273,40,20,59,179,26,25,51,145,31,32,44,318,21*75

1573545580424,$GPGSV,3,2,10,12,43,073,44,24,28,047,35*70

1573545580424,$GPGSV,3,3,10,10,,,40,25,,,20,32,,,17,24,,,31,8*6F

1573545580424,$GLGSV,1,1,04,76,79,219,32,65,55,100,36,75,46,030,39,66,44,341,23*6C

1573545580424,$QZGSV,2,1,02,01,66,134,25*54

1573545580424,$QZGSV,2,2,02,01,,,27,8*77

1573545580424,$BDGSV,3,1,10,225,82,250,33,206,65,009,30,216,63,357,32,203,51,200,25*6E

1573545580424,$BDGSV,3,2,10,209,49,318,25,201,47,148,15,207,45,176,,214,38,130,33*60

1573545580425,$BDGSV,3,3,10,224,38,042,38,223,29,225,29*6D

1573545580425,$GAGSV,4,1,10,102,73,108,33,108,63,347,37,103,47,094,40,130,37,197,29*60

1573545580425,$GAGSV,4,2,10,125,30,043,38*66

1573545580425,$GAGSV,4,3,10,102,,,35,108,,,39,103,,,35,130,,,,1*73

1573545580425,$GAGSV,4,4,10,125,,,32,1*43

1573545580425,$GPGSA,A,3,10,12,20,24,25,32,,,,,,,2.0,1.2,1.6*34

1573545580426,$GNGSA,A,3,10,12,20,24,25,32,,,,,,,2.0,1.2,1.6*2A

1573545580426,$GNGSA,A,3,65,66,75,76,,,,,,,,,2.0,1.2,1.6*2A

1573545580426,$QZGSA,A,3,01,,,,,,,,,,,,2.0,1.2,1.6*29

1573545580426,$IMGSA,A,3,,,,,,,,,,,,,2.0,1.2,1.6*27

1573545580426,$BDGSA,A,3,201,203,206,209,214,216,223,224,225,,,,2.0,1.2,1.6*18

1573545580426,$GAGSA,A,3,102,103,108,125,130,,,,,,,,2.0,1.2,1.6*19

1573545580426,$GPRMC,075941.00,A,3101.616791,N,12126.828272,E,000.0,113.6,121119,,,A*50

1573545581384,$GPGGA,075942.00,3101.616760,N,12126.828247,E,1,31,0.6,16.4,M,9.7,M,,*6E

1573545581388,$GPGSV,3,1,10,10,77,273,40,20,59,179,26,25,51,145,30,32,44,318,21*74

1573545581388,$GPGSV,3,2,10,12,43,073,44,24,28,047,36*73

1573545581388,$GPGSV,3,3,10,10,,,40,25,,,20,32,,,17,24,,,31,8*6F

1573545581388,$GLGSV,1,1,04,76,79,219,33,65,55,100,36,75,46,030,38,66,44,341,22*6D

1573545581388,$QZGSV,2,1,02,01,66,134,25*54

1573545581389,$QZGSV,2,2,02,01,,,26,8*76

1573545581389,$BDGSV,3,1,10,225,82,250,33,206,65,009,31,216,63,357,32,203,51,200,25*6F

1573545581389,$BDGSV,3,2,10,209,49,318,25,201,47,148,,207,45,176,16,214,38,130,34*64

1573545581389,$BDGSV,3,3,10,224,38,042,38,223,29,225,31*64

1573545581389,$GAGSV,4,1,10,102,73,108,33,108,63,347,37,103,47,094,40,130,37,197,29*60

1573545581389,$GAGSV,4,2,10,125,30,043,38*66

1573545581390,$GAGSV,4,3,10,102,,,35,108,,,39,103,,,35,130,,,,1*73

1573545581390,$GAGSV,4,4,10,125,,,32,1*43

1573545581390,$GPGSA,A,3,10,12,20,24,25,32,,,,,,,2.0,1.2,1.6*34

1573545581390,$GNGSA,A,3,10,12,20,24,25,32,,,,,,,2.0,1.2,1.6*2A

1573545581390,$GNGSA,A,3,65,66,75,76,,,,,,,,,2.0,1.2,1.6*2A

1573545581390,$QZGSA,A,3,01,,,,,,,,,,,,2.0,1.2,1.6*29

1573545581391,$IMGSA,A,3,,,,,,,,,,,,,2.0,1.2,1.6*27

1573545581391,$BDGSA,A,3,203,206,207,209,214,216,223,224,225,,,,2.0,1.2,1.6*1E

1573545581391,$GAGSA,A,3,102,103,108,125,130,,,,,,,,2.0,1.2,1.6*19

1573545581391,$GPRMC,075942.00,A,3101.616760,N,12126.828247,E,000.0,113.6,121119,,,A*5B

1573545582376,$GPGGA,075943.00,3101.616732,N,12126.828205,E,1,30,0.6,16.4,M,9.7,M,,*6F

1573545582378,$GPGSV,3,1,10,10,77,273,39,20,59,179,25,25,51,145,30,32,44,318,21*79

1573545582379,$GPGSV,3,2,10,12,43,073,45,24,28,047,36*72

1573545582379,$GPGSV,3,3,10,10,,,40,25,,,19,32,,,16,24,,,31,8*64

1573545582379,$GLGSV,1,1,04,76,79,219,33,65,55,100,36,75,46,030,38,66,44,341,22*6D

1573545582379,$QZGSV,2,1,02,01,66,134,25*54

1573545582379,$QZGSV,2,2,02,01,,,26,8*76

1573545582379,$BDGSV,3,1,10,225,82,250,33,206,65,009,31,216,63,357,32,203,51,200,25*6F

1573545582379,$BDGSV,3,2,10,209,49,318,25,201,47,148,,207,45,176,,214,38,130,34*63

1573545582380,$BDGSV,3,3,10,224,38,042,38,223,29,225,31*64

1573545582380,$GAGSV,4,1,10,102,73,108,33,108,63,347,36,103,47,094,40,130,37,197,28*60

1573545582380,$GAGSV,4,2,10,125,30,043,38*66

1573545582380,$GAGSV,4,3,10,102,,,35,108,,,39,103,,,35,130,,,09,1*7A

1573545582380,$GAGSV,4,4,10,125,,,32,1*43

1573545582380,$GPGSA,A,3,10,12,20,24,25,32,,,,,,,1.7,1.2,1.2*34

1573545582380,$GNGSA,A,3,10,12,20,24,25,32,,,,,,,1.7,1.2,1.2*2A

1573545582380,$GNGSA,A,3,65,66,75,76,,,,,,,,,1.7,1.2,1.2*2A

1573545582380,$QZGSA,A,3,01,,,,,,,,,,,,1.7,1.2,1.2*29

1573545582380,$IMGSA,A,3,,,,,,,,,,,,,1.7,1.2,1.2*27

1573545582380,$BDGSA,A,3,203,206,209,214,216,223,224,225,,,,,1.7,1.2,1.2*2B

1573545582380,$GAGSA,A,3,102,103,108,125,130,,,,,,,,1.7,1.2,1.2*19

1573545582380,$GPRMC,075943.00,A,3101.616732,N,12126.828205,E,000.0,113.6,121119,,,A*5B

1573545583396,$GPGGA,075944.00,3101.616686,N,12126.828157,E,1,32,0.6,16.3,M,9.7,M,,*67

1573545583399,$GPGSV,3,1,10,10,77,273,39,20,59,179,25,25,51,145,30,32,44,318,20*78

1573545583399,$GPGSV,3,2,10,12,43,073,45,24,28,047,36*72

1573545583399,$GPGSV,3,3,10,10,,,40,25,,,20,32,,,16,24,,,31,8*6E

1573545583399,$GLGSV,1,1,04,76,79,219,33,65,55,100,36,75,46,030,38,66,44,341,23*6C

1573545583400,$QZGSV,2,1,02,01,66,134,25*54

1573545583400,$QZGSV,2,2,02,01,,,26,8*76

1573545583400,$BDGSV,3,1,10,225,82,250,33,206,65,009,31,216,63,357,32,203,51,200,25*6F

1573545583400,$BDGSV,3,2,10,209,49,318,25,201,47,148,,207,45,176,15,214,38,130,34*67

1573545583400,$BDGSV,3,3,10,224,38,042,38,223,29,225,32*67

1573545583400,$GAGSV,4,1,10,102,73,108,33,108,63,347,36,103,47,094,40,130,37,197,28*60

1573545583401,$GAGSV,4,2,10,125,30,043,38*66

1573545583401,$GAGSV,4,3,10,102,,,35,108,,,39,103,,,35,130,,,10,1*72

1573545583401,$GAGSV,4,4,10,125,,,32,1*43

1573545583401,$GPGSA,A,3,10,12,20,24,25,32,,,,,,,2.0,1.2,1.6*34

1573545583401,$GNGSA,A,3,10,12,20,24,25,32,,,,,,,2.0,1.2,1.6*2A

1573545583401,$GNGSA,A,3,65,66,75,76,,,,,,,,,2.0,1.2,1.6*2A

1573545583401,$QZGSA,A,3,01,,,,,,,,,,,,2.0,1.2,1.6*29

1573545583402,$IMGSA,A,3,,,,,,,,,,,,,2.0,1.2,1.6*27

1573545583402,$BDGSA,A,3,203,206,209,214,216,223,224,225,,,,,2.0,1.2,1.6*2B

1573545583402,$GAGSA,A,3,102,103,108,125,130,,,,,,,,2.0,1.2,1.6*19

1573545583402,$GPRMC,075944.00,A,3101.616686,N,12126.828157,E,000.0,113.6,121119,,,A*56

1573545584400,$GPGGA,075945.00,3101.616668,N,12126.828140,E,1,32,0.6,16.3,M,9.7,M,,*60

1573545584402,$GPGSV,3,1,10,10,77,273,39,20,59,179,24,25,51,145,29,32,44,318,20*71

1573545584403,$GPGSV,3,2,10,12,43,073,45,24,28,047,36*72

1573545584403,$GPGSV,3,3,10,10,,,40,25,,,19,32,,,16,24,,,31,8*64

1573545584403,$GLGSV,1,1,04,76,79,219,33,65,55,100,36,75,46,030,38,66,44,341,23*6C

1573545584403,$QZGSV,2,1,02,01,66,134,25*54

1573545584403,$QZGSV,2,2,02,01,,,26,8*76

1573545584403,$BDGSV,3,1,10,225,82,250,33,206,65,009,31,216,63,357,32,203,51,200,25*6F

1573545584404,$BDGSV,3,2,10,209,49,318,25,201,47,148,,207,45,176,14,214,38,130,34*66

1573545584404,$BDGSV,3,3,10,224,38,042,38,223,29,225,32*67

1573545584404,$GAGSV,4,1,10,102,73,108,33,108,63,347,37,103,47,094,40,130,37,197,27*6E

1573545584404,$GAGSV,4,2,10,125,30,043,38*66

1573545584404,$GAGSV,4,3,10,102,,,34,108,,,39,103,,,35,130,,,12,1*71

1573545584405,$GAGSV,4,4,10,125,,,31,1*40

1573545584405,$GPGSA,A,3,10,12,20,24,25,32,,,,,,,2.2,1.3,1.7*36

1573545584405,$GNGSA,A,3,10,12,20,24,25,32,,,,,,,2.2,1.3,1.7*28

1573545584405,$GNGSA,A,3,65,66,75,76,,,,,,,,,2.2,1.3,1.7*28

1573545584405,$QZGSA,A,3,01,,,,,,,,,,,,2.2,1.3,1.7*2B

1573545584405,$IMGSA,A,3,,,,,,,,,,,,,2.2,1.3,1.7*25

1573545584406,$BDGSA,A,3,203,206,209,214,216,223,224,225,,,,,2.2,1.3,1.7*29

1573545584406,$GAGSA,A,3,102,103,108,125,130,,,,,,,,2.2,1.3,1.7*1B

1573545584406,$GPRMC,075945.00,A,3101.616668,N,12126.828140,E,000.0,113.6,121119,,,A*51

1573545585363,$GPGGA,075946.00,3101.616653,N,12126.828099,E,1,31,0.6,16.4,M,9.7,M,,*6A

1573545585367,$GPGSV,3,1,10,10,77,273,39,20,59,179,24,25,51,145,29,32,44,318,20*71

1573545585367,$GPGSV,3,2,10,12,43,073,45,24,28,047,36*72

1573545585368,$GPGSV,3,3,10,10,,,40,25,,,19,32,,,15,24,,,31,8*67

1573545585368,$GLGSV,1,1,04,76,79,219,33,65,55,100,36,75,46,030,38,66,44,341,23*6C

1573545585368,$QZGSV,2,1,02,01,66,134,25*54

1573545585368,$QZGSV,2,2,02,01,,,26,8*76

1573545585368,$BDGSV,3,1,10,225,82,250,33,206,65,009,31,216,63,357,32,203,51,200,25*6F

1573545585369,$BDGSV,3,2,10,209,49,318,25,201,47,148,,207,45,176,14,214,38,130,33*61

1573545585369,$BDGSV,3,3,10,224,38,042,38,223,29,225,31*64

1573545585369,$GAGSV,4,1,10,102,73,108,33,108,63,347,37,103,47,094,41,130,37,197,26*6E

1573545585369,$GAGSV,4,2,10,125,30,043,38*66

1573545585369,$GAGSV,4,3,10,102,,,34,108,,,39,103,,,35,130,,,,1*72

1573545585370,$GAGSV,4,4,10,125,,,31,1*40

1573545585370,$GPGSA,A,3,10,12,20,24,25,32,,,,,,,1.7,1.2,1.2*34

1573545585370,$GNGSA,A,3,10,12,20,24,25,32,,,,,,,1.7,1.2,1.2*2A

1573545585370,$GNGSA,A,3,65,66,75,76,,,,,,,,,1.7,1.2,1.2*2A

1573545585370,$QZGSA,A,3,01,,,,,,,,,,,,1.7,1.2,1.2*29

1573545585370,$IMGSA,A,3,,,,,,,,,,,,,1.7,1.2,1.2*27

1573545585371,$BDGSA,A,3,203,206,207,209,214,216,223,224,225,,,,1.7,1.2,1.2*1E

1573545585371,$GAGSA,A,3,102,103,108,125,130,,,,,,,,1.7,1.2,1.2*19

1573545585372,$GPRMC,075946.00,A,3101.616653,N,12126.828099,E,000.0,113.7,121119,,,A*5E

1573545586384,$GPGGA,075947.00,3101.616644,N,12126.828054,E,1,30,0.6,16.4,M,9.7,M,,*6D

1573545586387,$GPGSV,3,1,10,10,77,273,39,20,59,179,23,25,51,145,28,32,44,318,20*77

1573545586387,$GPGSV,3,2,10,12,43,073,44,24,28,047,36*73

1573545586387,$GPGSV,3,3,10,10,,,40,25,,,19,32,,,15,24,,,30,8*66

1573545586387,$GLGSV,1,1,04,76,79,219,33,65,55,100,36,75,46,030,38,66,44,341,23*6C

1573545586387,$QZGSV,2,1,02,01,66,134,25*54

1573545586387,$QZGSV,2,2,02,01,,,26,8*76

1573545586388,$BDGSV,3,1,10,225,82,250,33,206,65,009,30,216,63,357,33,203,51,200,25*6F

1573545586388,$BDGSV,3,2,10,209,49,318,25,201,47,148,,207,45,176,,214,38,130,33*64

1573545586388,$BDGSV,3,3,10,224,38,042,38,223,29,225,32*67

1573545586388,$GAGSV,4,1,10,102,73,108,33,108,63,347,37,103,47,094,41,130,37,197,26*6E

1573545586388,$GAGSV,4,2,10,125,30,043,38*66

1573545586388,$GAGSV,4,3,10,102,,,35,108,,,39,103,,,35,130,,,,1*73

1573545586389,$GAGSV,4,4,10,125,,,31,1*40

1573545586389,$GPGSA,A,3,10,12,20,24,25,32,,,,,,,2.0,1.2,1.6*34

1573545586389,$GNGSA,A,3,10,12,20,24,25,32,,,,,,,2.0,1.2,1.6*2A

1573545586389,$GNGSA,A,3,65,66,75,76,,,,,,,,,2.0,1.2,1.6*2A

1573545586389,$QZGSA,A,3,01,,,,,,,,,,,,2.0,1.2,1.6*29

1573545586389,$IMGSA,A,3,,,,,,,,,,,,,2.0,1.2,1.6*27

1573545586389,$BDGSA,A,3,203,206,209,214,216,223,224,225,,,,,2.0,1.2,1.6*2B

1573545586390,$GAGSA,A,3,102,103,108,125,130,,,,,,,,2.0,1.2,1.6*19

1573545586390,$GPRMC,075947.00,A,3101.616644,N,12126.828054,E,000.0,113.7,121119,,,A*58

1573545587372,$GPGGA,075948.00,3101.616670,N,12126.828004,E,1,29,0.6,16.4,M,9.7,M,,*68

1573545587375,$GPGSV,3,1,10,10,77,273,39,20,59,179,22,25,51,145,28,32,44,318,20*76

1573545587375,$GPGSV,3,2,10,12,43,073,44,24,28,047,37*72

1573545587375,$GPGSV,3,3,10,10,,,40,25,,,19,32,,,14,24,,,30,8*67

1573545587375,$GLGSV,1,1,04,76,79,219,33,65,55,100,36,75,46,030,37,66,44,341,23*63

1573545587376,$QZGSV,2,1,02,01,66,134,25*54

1573545587376,$QZGSV,2,2,02,01,,,26,8*76

1573545587376,$BDGSV,3,1,10,225,82,251,33,206,65,009,30,216,63,357,32,203,51,200,24*6E

1573545587376,$BDGSV,3,2,10,209,49,318,24,201,47,148,,207,45,176,,214,38,130,33*65

1573545587376,$BDGSV,3,3,10,224,38,042,38,223,29,225,32*67

