     3.03           OBSERVATION DATA    M: Mixed            RINEX VERSION / TYPE
Geo++ RINEX Logger  Geo++               20210410 065942 UTC PGM / RUN BY / DATE
************************************************************COMMENT
This file was generated by the Geo++ RINEX Logger App       COMMENT
for Android devices (Version 2.1.6). If you encounter       COMMENT
any issues, please send an email to android@geopp.de        COMMENT
Filtering Mode: BEST                                        COMMENT
************************************************************COMMENT
Geo++                                                       MARKER NAME
GEODETIC                                                    MARKER TYPE
Geo++               Geo++                                   OBSERVER / AGENCY
unknown             samsung             SM-G9750            REC # / TYPE / VERS
unknown             SM-G9750                                ANT # / TYPE
 -2853721.1491  4666598.0609  3269257.5884                  APPROX POSITION XYZ
        0.0000        0.0000        0.0000                  ANTENNA: DELTA H/E/N
G    8 C1C L1C D1C S1C C5Q L5Q D5Q S5Q                      SYS / # / OBS TYPES
R    4 C1C L1C D1C S1C                                      SYS / # / OBS TYPES
E   12 C1B L1B D1B S1B C1C L1C D1C S1C C5Q L5Q D5Q S5Q      SYS / # / OBS TYPES
C    4 C2I L2I D2I S2I                                      SYS / # / OBS TYPES
J    8 C1C L1C D1C S1C C5Q L5Q D5Q S5Q                      SYS / # / OBS TYPES
  2021     4    10     7     0    0.4441446     GPS         TIME OF FIRST OBS
 24 R01  1 R02 -4 R03  5 R04  6 R05  1 R06 -4 R07  5 R08  6 GLONASS SLOT / FRQ #
    R09 -2 R10 -5 R11  0 R12 -1 R13 -2 R14 -7 R15  0 R16 -1 GLONASS SLOT / FRQ #
    R17  4 R18 -3 R19  3 R20  2 R21  4 R22 -3 R23  3 R24  2 GLONASS SLOT / FRQ #
G L1C                                                       SYS / PHASE SHIFT
G L5Q -0.25000                                              SYS / PHASE SHIFT
R L1C                                                       SYS / PHASE SHIFT
E L1B                                                       SYS / PHASE SHIFT
E L1C +0.50000                                              SYS / PHASE SHIFT
E L5Q -0.25000                                              SYS / PHASE SHIFT
C L2I                                                       SYS / PHASE SHIFT
J L1C                                                       SYS / PHASE SHIFT
J L5Q -0.25000                                              SYS / PHASE SHIFT
 C1C    0.000 C1P    0.000 C2C    0.000 C2P    0.000        GLONASS COD/PHS/BIS
                                                            END OF HEADER
> 2021  4 10  7  0  0.4441446  0 29
C02  37931703.240                          21.435          45.900  
C05  40113233.898                          22.650          43.400  
C09  39970557.271                       -1734.702          36.100  
C10  36487164.973                         555.400          32.700  
C12  25460559.134                        2133.967          41.200  
C13  38210413.993                        1215.916          38.900  
C16  41323921.157                       -1372.150          32.800  
C19  25688734.771                        2074.800          29.400  
C24  25071158.410                        2575.427          42.000  
C26  21795131.057                         187.589          48.000  
C29  24353359.932                       -2282.139          38.100  
E01  24978166.687                       -1777.009          34.300  
E12  22947943.981                        1601.831          44.900    22945816.654                        1196.200          32.700  
E24  26666680.253                        2520.573          39.500    26664555.624                        1882.006          34.200  
E31  23548916.037                         785.900          32.400  
G03  23504717.035                        2997.954          37.300  
G07  21598928.585                       -2485.075          44.600  
G08  22780372.288                       -2040.000          28.400  
G14  22019265.492                        2602.781          45.500    22016917.817                        1943.486          33.800  
G17  23289507.122                        1633.106          51.500  
G19  25408693.539                        2511.194          44.200  
G21  21442857.231                       -2235.350          31.300  
G30  21566098.912                        -300.452          52.900  
J01  37922808.698                         253.598          35.600  
R07  24525220.155                        2385.400          29.700  
R13  20011038.558                        2255.650          26.500  
R14  24367764.959                        4212.850          33.900  
R23  19890657.796                         533.018          49.300  
R24  22286961.570                        2579.530          46.500  
> 2021  4 10  7  0  1.4441446  0 29
C02  37931699.494                          26.336          46.100  
C05  40113228.952                          22.900          43.100  
C07  35943170.724                         320.300          26.600  
C09  39970893.489                       -1729.244          36.400  
C10  36487067.692                         557.300          32.000  
C12  25460151.567                        2139.249          40.500  
C13  38210179.406                        1221.379          38.900  
C16  41324183.626                       -1368.550          33.500  
C19  25688331.701                        2077.200          31.500  
C24  25070664.503                        2580.377          41.800  
C26  21795094.333                         192.422          47.400  
C29  24353797.480                       -2276.881          38.900  
E01  24978499.608                       -1771.865          34.700  
E12  22947636.545                        1606.980          45.300    22945510.117                        1200.049          33.600  
E24  26666201.036                        2525.683          39.500    26664075.807                        1886.019          33.200  
E31  23548765.992                         790.617          34.900  
G03  23504128.393                        3003.262          37.900  
G07  21599408.404                       -2480.006          44.700  
G08  22780770.264                       -2030.900          29.700  
G14  22018765.889                        2608.001          45.400    22016422.111                        1947.408          34.400  
G17  23289198.187                        1638.333          52.200  
G19  25408209.825                        2516.617          43.500  
G21  21443297.777                       -2229.285          33.600  
G30  21566155.124                        -295.662          52.800  
J01  37922764.180                         259.050          36.100  
R07  24524820.383                        2390.750          28.600  
R14  24366981.753                        4219.833          35.300  
R23  19890554.219                         538.062          49.200  
R24  22286479.354                        2584.688          46.100  
> 2021  4 10  7  0  2.4441446  0 30
C02  37931694.890                          30.568          45.900  
C04  37918455.156                         -27.900          32.200  
C05  40113221.051                          31.951          42.500  
C09  39971218.057                       -1724.795          36.500  
C10  36486963.856                         566.050          33.100  
C12  25459745.541                        2143.328          40.000  
C13  38209948.459                        1225.452          38.200  
C16  41324441.340                       -1358.500          31.700  
C19  25687946.361                        2084.600          31.800  
C24  25070177.233                        2584.433          42.500  
C26  21795055.853                         196.171          47.600  
C29  24354233.271                       -2272.419          37.500  
E01  24978833.169                       -1768.301          34.900  
E12  22947330.350                        1610.886          44.900    22945203.622                        1203.385          34.200  
E24  26665719.762                        2529.673          39.300    26663594.833                        1889.754          34.200  
E31  23548617.487                         794.394          34.800  
G03  23503566.176                        3007.675          38.700  
G07  21599883.168                       -2476.121          45.100  
G08  22781128.709                       -2032.900          29.800  
G14  22018283.116                        2612.138          45.900    22015928.546                        1951.088          34.400  
G17  23288887.195                        1642.601          52.700  
G19  25407730.950                        2520.898          43.000  
G21  21443726.373                       -2225.697          33.900  
G30  21566209.580                        -291.941          52.600  
J01  37922716.705                         263.465          35.200  
R07  24524284.247                        2387.600          30.100  
R13  20010299.614                        2251.900          25.100  
R14  24366192.292                        4224.367          35.700  
R23  19890452.482                         541.941          49.500  
R24  22285994.183                        2588.716          46.400  
> 2021  4 10  7  0  3.4441446  0 30
C02  37931688.431                          28.814          45.100  
C05  40113216.091                          30.000          41.800  
C07  35943047.539                         325.600          25.800  
C09  39971549.165                       -1726.593          36.300  
C10  36486845.276                         560.800          32.500  
C12  25459329.266                        2141.332          38.900  
C13  38209710.261                        1223.482          38.100  
C16  41324700.198                       -1360.700          30.600  
C19  25687542.377                        2083.300          30.400  
C24  25069670.121                        2582.074          42.000  
C26  21795017.616                         193.630          46.800  
C29  24354672.004                       -2274.408          37.500  
E01  24979163.078                       -1770.050          33.100  
E12  22947023.199                        1608.838          45.300    22944898.870                        1201.502          34.800  
E24  26665238.432                        2528.139          40.200    26663112.904                        1887.966          33.900  
E31  23548461.732                         792.300          33.600  
G01  19735647.888                        -323.822          35.100  
G03  23502983.516                        3005.391          39.300  
G07  21600354.579                       -2478.482          44.400  
G08  22781525.171                       -2029.350          29.000  
G14  22017778.102                        2610.042          46.300    22015430.727                        1949.180          34.900  
G17  23288576.447                        1640.488          52.600  
G19  25407246.922                        2518.985          43.000  
G21  21444146.519                       -2227.350          33.100  
G30  21566265.478                        -294.513          52.400  
J01  37922667.976                         261.607          35.900  
R07  24523790.326                        2390.050          30.000  
R14  24365409.971                        4222.453          35.300  
R23  19890355.486                         539.534          49.200  
R24  22285508.656                        2586.356          46.900  
> 2021  4 10  7  0  4.4441446  0 33
C02  37931681.568                          26.731          45.900  
C05  40113210.727                           5.700          42.100  
C07  35942986.413                         327.450          27.000  
C09  39971882.866                       -1729.009          35.800  
C10  36486743.078                         560.800          33.100  
C12  25458916.184                        2138.718          40.300  
C13  38209476.155                        1220.884          38.300  
C16  41324970.643                       -1364.000          32.800  
C19  25687126.297                        2079.100          32.300  
C24  25069183.290                        2579.570          42.200  
C26  21794982.872                         190.767          47.800  
C29  24355108.534                       -2276.793          37.900  
E01  24979505.773                       -1772.100          29.900  
E12  22946720.141                        1606.096          45.600    22944591.914                        1199.287          35.200  
E24  26664758.497                        2525.660          39.600    26662631.769                        1885.912          34.800  
E26  25894175.860                       -2520.650          21.700  
E31  23548313.666                         789.533          35.100  
E33  23583436.751                        -885.300          22.800  
G01  19735697.386                        -329.233          34.100  
G03  23502417.540                        3003.020          40.300  
G07  21600826.484                       -2481.339          45.000  
G08  22781941.015                       -2037.800          31.800  
G14  22017287.074                        2607.460          46.600    22014933.404                        1947.058          34.500  
G17  23288264.695                        1637.953          52.900  
G19  25406768.785                        2516.433          44.300  
G21  21444537.780                       -2234.150          29.300  
G30  21566322.470                        -297.616          52.700  
J01  37922622.739                         259.144          35.100  
R07  24523409.921                        2388.700          30.300  
R13  20009413.296                        2256.200          24.700  
R14  24364603.561                        4219.805          34.400  
R23  19890258.985                         536.414          49.600  
R24  22285017.628                        2583.441          46.000  
> 2021  4 10  7  0  5.4441446  0 31
C02  37931677.408                          27.179          46.400  
C04  37918444.868                         -21.850          33.500  
C05  40113207.466                          28.829          43.100  
C07  35942913.600                         322.700          29.000  
C09  39972211.475                       -1728.092          35.700  
C10  36486635.489                         560.600          31.800  
C12  25458506.404                        2139.412          40.700  
C13  38209241.154                        1221.575          38.800  
C16  41325227.602                       -1365.250          32.900  
C19  25686735.405                        2081.500          32.900  
C24  25068683.573                        2580.002          42.600  
C26  21794944.835                         190.971          47.800  
C29  24355542.370                       -2276.060          37.600  
E01  24979834.682                       -1773.100          33.200  
E12  22946413.490                        1606.356          45.600    22944286.762                        1199.528          33.900  
E24  26664274.968                        2526.051          39.600    26662150.039                        1886.113          34.500  
E31  23548160.809                         789.550          34.100  
G03  23501847.671                        3003.589          39.900  
G07  21601299.593                       -2480.933          46.100  
G08  22782313.994                       -2037.650          29.800  
G14  22016792.153                        2608.038          46.900    22014436.684                        1947.315          33.900  
G17  23287952.647                        1638.603          53.100  
G19  25406291.852                        2517.164          45.000  
G21  21444970.118                       -2230.000          32.300  
G30  21566377.069                        -297.426          52.500  
J01  37922563.417                         260.246          35.500  
R07  24522977.657                        2388.700          30.700  
R12  19507398.870                       -1832.950          19.500  
R14  24363829.533                        4220.444          34.900  
R23  19890162.189                         536.721          49.100  
R24  22284537.397                        2583.860          46.800  
> 2021  4 10  7  0  6.4441446  0 28
C02  37931670.980                          28.893          45.200  
C05  40113198.340                          20.500          42.000  
C09  39972545.312                       -1726.823          36.300  
C10  36486537.025                         564.850          33.700  
C12  25458097.355                        2140.358          40.000  
C13  38209007.784                        1222.678          37.800  
C16  41325490.987                       -1363.350          31.200  
C19  25686329.653                        2082.950          33.600  
C24  25068190.882                        2580.899          40.800  
C26  21794909.328                         191.605          47.200  
C29  24355980.235                       -2274.769          37.400  
E01  24980172.416                       -1771.150          29.000  
E12  22946109.069                        1607.434          45.100    22943980.542                        1200.466          34.600  
E24  26663795.768                        2527.574          37.000    26661671.438                        1887.294          32.700  
E31  23548007.183                         790.550          32.100  
G03  23501265.942                        3004.936          41.000  
G07  21601773.733                       -2480.181          45.400  
G08  22782719.481                       -2032.950          32.000  
G14  22016292.267                        2609.078          46.200    22013940.396                        1948.300          31.300  
G17  23287642.530                        1639.743          52.000  
G19  25405815.649                        2518.158          45.100  
G21  21445432.266                       -2227.450          32.500  
G30  21566430.300                        -296.892          51.400  
J01  37922529.409                         261.286          33.900  
R07  24522508.950                        2385.750          31.200  
R14  24363004.972                        4221.797          34.400  
R23  19890057.729                         537.333          49.700  
R24  22284058.497                        2584.723          47.400  
> 2021  4 10  7  0  7.4441446  0 29
C02  37931668.163                          32.782          43.000  
C03  37062206.179                           8.150          30.300  
C05  40113199.120                           9.300          38.000  
C09  39972874.365                       -1722.371          38.700  
C10  36486413.692                         568.300          32.500  
C12  25457679.925                        2144.672          34.500  
C13  38208781.321                        1227.070          35.100  
C16  41325748.690                       -1359.250          30.200  
C19  25685924.815                        2087.302          35.200  
C24  25067691.009                        2585.155          37.000  
C26  21794866.638                         195.659          46.300  
C29  24356416.314                       -2270.269          35.800  
E01  24980479.584                       -1767.850          31.100  
E12  22945800.163                        1611.607          43.600    22943674.035                        1203.612          34.800  
E24  26663320.777                        2531.902          35.800    26661187.454                        1890.960          34.100  
E31  23547873.956                         795.310          34.800  
G03  23500685.724                        3009.290          41.300  
G07  21602239.791                       -2476.042          45.000  
G08  22783101.597                       -2030.389          34.700  
G14  22015794.493                        2613.594          45.800    22013444.720                        1951.872          34.000  
G17  23287331.226                        1644.196          51.700  
G19  25405337.661                        2522.871          44.800  
G21  21445850.957                       -2224.928          33.400  
G30  21566485.043                        -292.922          50.800  
J01  37922475.927                         265.886          34.300  
R07  24522130.193                        2393.200          32.800  
R14  24362195.713                        4225.350          29.400  
R23  19889957.479                         541.584          49.200  
R24  22283571.815                        2588.854          47.500  
> 2021  4 10  7  0  8.4441446  3  1
Geo++                                                       MARKER NAME
> 2021  4 10  7  0  8.4441446  0 31
C02  37931662.627                          30.051          44.100  
C04  37918445.377                         -19.100          31.900  
C05  40113190.287                          21.900          39.500  
C09  39973206.395                       -1725.095          38.400  
C10  36486319.717                         562.700          31.900  
C12  25457271.168                        2139.400          33.800  
C13  38208540.748                        1224.068          36.200  
C16  41326006.971                       -1358.950          31.900  
C19  25685533.146                        2085.150          33.800  
C24  25067200.109                        2581.866          39.500  
C26  21794830.523                         192.156          46.300  
C29  24356848.775                       -2273.058          35.200  
E01  24980823.007                       -1770.119          34.800  
E12  22945489.738                        1608.512          42.000    22943368.107                        1201.637          36.400  
E24  26662836.773                        2528.636          35.000    26660706.148                        1888.687          32.900  
E31  23547727.518                         791.618          35.100  
E33  23584109.731                        -885.750          22.800  
G03  23500121.675                        3006.309          40.700  
G07  21602702.830                       -2479.286          43.600  
G08  22783480.395                       -2033.335          33.600  
G14  22015291.601                        2610.385          46.400    22012947.824                        1949.626          34.700  
G17  23287017.504                        1641.124          52.700  
G19  25404857.554                        2519.859          45.600  
G21  21446274.124                       -2228.061          34.300  
G30  21566542.764                        -296.481          50.100  
J01  37922415.828                         262.943          34.900  
R07  24521631.198                        2386.800          32.500  
R12  19508363.511                       -1833.300          23.200  
R14  24361446.992                        4224.500          32.000  
R23  19889859.907                         538.055          49.200  
R24  22283089.009                        2585.619          47.200  
> 2021  4 10  7  0  9.4441446  0 29
C02  37931652.942                          28.658          44.000  
C05  40113189.296                          28.850          39.500  
C09  39973536.975                       -1726.387          38.000  
C10  36486213.799                         564.200          30.300  
C12  25456855.565                        2139.422          34.400  
C13  38208304.121                        1222.497          35.100  
C16  41326264.701                       -1362.350          31.100  
C19  25685129.234                        2084.200          33.300  
C24  25066698.765                        2580.479          37.700  
C26  21794792.059                         190.221          45.500  
C29  24357286.081                       -2274.744          35.200  
E01  24981155.985                       -1772.479          35.100  
E12  22945187.756                        1606.457          42.800    22943062.527                        1197.934          35.400  
E24  26662348.919                        2527.100          34.000    26660225.489                        1887.178          33.000  
E31  23547575.132                         789.900          33.100  
E33  23584284.419                        -882.750          28.400  
G03  23499551.378                        3004.735          40.900  
G07  21603175.812                       -2481.371          43.500  
G08  22783885.623                       -2034.400          32.900  
G14  22014796.553                        2608.785          45.500    22012451.576                        1948.007          33.500  
G17  23286705.628                        1639.529          52.000  
G19  25404378.694                        2518.248          45.200  
G21  21446682.350                       -2230.187          34.000  
G30  21566599.933                        -298.559          49.600  
J01  37922358.477                         260.750          33.000  
R07  24521202.404                        2385.600          31.400  
R14  24360674.635                        4221.050          32.300  
R23  19889765.381                         536.000          49.700  
R24  22282604.753                        2583.733          47.700  
> 2021  4 10  7  0 10.4441446  0 31
C02  37931647.952                          31.962          44.300  
C05  40113167.518                          25.750          39.800  
C07  35942610.134                         331.100          23.200  
C09  39973866.554                       -1722.937          37.500  
C10  36486100.284                         564.250          32.300  
C12  25456443.756                        2143.355          36.400  
C13  38208078.783                        1225.300          33.400  
C16  41326530.724                       -1357.450          32.400  
C19  25684729.118                        2085.500          32.700  
C24  25066205.113                        2583.484          37.900  
C26  21794757.389                         193.115          46.300  
C29  24357718.488                       -2271.253          35.100  
E01  24981489.161                       -1769.550          33.900  
E12  22944880.875                        1609.695          43.400    22942756.546                        1202.621          36.100  
E24  26661871.156                        2530.732          36.000    26659744.129                        1889.939          34.400  
E26  25896988.474                       -2518.100          20.000  
E31  23547420.546                         793.750          32.700  
G03  23498976.782                        3008.049          41.500  
G07  21603645.393                       -2478.312          43.900  
G08  22784286.852                       -2031.548          36.200  
G14  22014304.400                        2612.000          45.800    22011955.826                        1950.726          34.200  
G17  23286392.751                        1642.821          52.600  
G19  25403901.830                        2521.595          45.200  
G21  21447115.057                       -2228.250          33.100  
G30  21566657.299                        -295.737          51.400  
J01  37922310.316                         264.971          34.600  
R07  24520763.314                        2388.000          31.400  
R13  20006907.592                        2256.350          20.900  
R14  24359898.579                        4223.200          30.100  
R23  19889665.956                         538.943          51.400  
R24  22282123.992                        2586.835          47.900  
> 2021  4 10  7  0 11.4441446  0 32
C02  37931642.487                          28.948          43.700  
C04  37918433.332                         -13.300          32.500  
C05  40113168.648                          28.900          41.800  
C09  39974201.054                       -1726.219          37.300  
C10  36485998.886                         565.300          31.600  
C12  25456024.878                        2139.814          35.700  
C13  38207832.885                        1222.709          35.200  
C16  41326792.674                       -1360.200          30.600  
C19  25684332.424                        2083.200          31.600  
C20  26768405.336                         716.600          23.000  
C24  25065709.488                        2579.978          41.000  
C26  21794721.046                         189.434          47.500  
C29  24358152.819                       -2274.409          34.700  
E01  24981834.153                       -1772.806          36.600  
E12  22944577.717                        1606.089          42.300    22942450.389                        1197.657          34.700  
E24  26661393.818                        2527.336          38.900    26659263.493                        1887.090          34.600  
E31  23547272.080                         789.400          31.500  
E33  23584604.335                        -882.400          25.500  
G03  23498407.108                        3004.659          41.900  
G07  21604121.995                       -2481.905          45.500  
G08  22784651.331                       -2034.860          35.400  
G14  22013806.076                        2608.668          45.600    22011458.102                        1947.644          33.700  
G17  23286079.400                        1639.460          51.200  
G19  25403424.193                        2518.486          47.100  
G21  21447516.411                       -2230.530          33.400  
G27  25774241.981                       -2511.700          29.900  
G30  21566713.592                        -299.582          52.400  
J01  37922249.390                         262.030          35.000  
R07  24520325.849                        2386.000          33.400  
R14  24359067.186                        4217.100          31.600  
R23  19889562.160                         535.210          50.800  
R24  22281638.860                        2583.120          48.500  
> 2021  4 10  7  0 12.4441446  0 32
C02  37931635.644                          31.012          45.000  
C03  37062134.687                          45.600          28.300  
C05  40113161.205                          30.950          41.600  
C09  39974531.776                       -1724.275          36.200  
C10  36485889.213                         561.600          30.800  
C12  25455619.610                        2141.436          37.200  
C13  38207602.096                        1224.067          35.400  
C16  41327051.147                       -1360.550          31.700  
C19  25683923.559                        2087.650          32.000  
C20  26768268.682                         714.300          23.700  
C24  25065213.982                        2581.333          40.700  
C26  21794685.122                         190.520          47.600  
C29  24358597.163                       -2272.657          37.300  
E01  24982165.775                       -1770.829          35.100  
E12  22944270.181                        1607.843          43.600    22942144.952                        1200.763          32.400  
E24  26660909.405                        2529.263          38.000    26658783.277                        1888.623          34.400  
E31  23547119.237                         791.200          32.800  
E33  23584789.659                        -882.250          29.000  
G03  23497836.055                        3006.367          41.000  
G07  21604590.622                       -2480.581          45.600  
G08  22785050.706                       -2032.875          33.600  
G14  22013309.072                        2610.246          46.400    22010962.297                        1949.296          34.100  
G17  23285768.267                        1641.165          52.700  
G19  25402941.578                        2519.954          45.700  
G21  21447944.566                       -2228.965          35.300  
G27  25774716.904                       -2511.600          29.900  
G30  21566766.707                        -298.477          51.200  
J01  37922215.565                         263.624          33.500  
R07  24519861.522                        2387.350          32.200  
R14  24358269.790                        4225.550          31.400  
R23  19889461.781                         536.422          50.900  
R24  22281149.950                        2584.514          47.700  
> 2021  4 10  7  0 13.4441446  0 33
C02  37931631.281                          34.480          44.700  
C05  40113154.444                          37.800          41.200  
C07  35942422.582                         330.550          26.900  
C09  39974861.382                       -1720.534          36.000  
C10  36485780.823                         568.800          31.900  
C12  25455213.226                        2144.747          37.800  
C13  38207365.394                        1227.401          37.500  
C16  41327313.899                       -1352.100          31.600  
C20  26768132.111                         713.200          24.000  
C24  25064714.662                        2584.671          41.400  
C26  21794646.283                         193.565          47.300  
C29  24359034.095                       -2268.988          35.900  
E01  24982507.373                       -1767.876          36.600  
E12  22943964.527                        1610.936          44.900    22941838.699                        1202.596          34.400  
E24  26660424.775                        2532.688          38.600    26658301.345                        1890.912          34.200  
E31  23546967.976                         794.400          33.600  
E33  23584953.779                        -878.950          26.100  
G03  23497264.785                        3009.868          39.200  
G07  21605064.428                       -2477.371          45.600  
G08  22785441.770                       -2029.647          35.500  
G14  22012811.851                        2613.702          45.900    22010466.274                        1951.545          32.900  
G17  23285454.219                        1644.661          52.800  
G19  25402461.445                        2523.464          46.900  
G21  21448376.101                       -2225.571          35.700  
G27  25775204.500                       -2506.350          30.000  
G30  21566828.898                        -295.517          51.900  
J01  37922169.232                         267.378          34.500  
R07  24519446.144                        2389.200          30.200  
R12  19510098.543                       -1836.450          23.900  
R13  20005640.486                        2253.950          25.100  
R14  24357473.075                        4224.500          31.400  
R23  19889353.990                         539.531          49.800  
R24  22280666.818                        2587.820          46.100  
> 2021  4 10  7  0 14.4441446  0 32
C02  37931622.827                          34.870          44.800  
C05  40113147.788                          25.500          42.100  
C09  39975191.394                       -1720.322          35.300  
C10  36485675.235                         568.750          28.700  
C12  25454803.649                        2144.783          39.800  
C13  38207128.198                        1227.906          36.600  
C16  41327571.061                       -1354.150          31.600  
C19  25683116.591                        2088.500          28.300  
C20  26768000.741                         713.300          24.200  
C24  25064213.349                        2584.651          42.100  
C26  21794609.349                         193.126          46.200  
C29  24359466.035                       -2268.483          35.600  
E01  24982843.380                       -1767.541          36.900  
E12  22943656.580                        1611.377          42.300    22941533.450                        1202.947          32.700  
E24  26659948.644                        2533.315          40.200    26657819.818                        1891.254          32.600  
E31  23546821.917                         795.000          33.100  
E33  23585103.316                        -878.500          27.000  
G03  23496681.629                        3010.231          38.700  
G07  21605538.040                       -2477.410          44.900  
G08  22785835.637                       -2028.550          31.800  
G14  22012313.835                        2613.956          46.100    22009967.060                        1951.643          32.100  
G17  23285142.374                        1644.892          52.400  
G19  25401985.914                        2523.983          47.600  
G21  21448800.847                       -2225.306          35.400  
G27  25775695.200                       -2505.550          30.100  
G30  21566884.599                        -295.765          49.200  
J01  37922106.815                         268.050          34.000  
R07  24518984.703                        2392.250          32.200  
R12  19510471.424                       -1830.100          32.100  
R14  24356673.469                        4227.700          33.700  
R23  19889246.004                         539.307          48.100  
R24  22280187.390                        2587.728          46.900  
> 2021  4 10  7  0 15.4441446  0 31
C02  37931610.802                          31.000          42.100  
C03  37062109.845                          46.350          32.900  
C04  37918392.953                          -7.000          31.700  
C05  40113143.859                          31.200          42.500  
C09  39975524.730                       -1726.300          32.200  
C10  36485524.407                         565.250          28.600  
C12  25454393.200                        2141.895          42.900  
C13  38206882.636                        1224.631          39.400  
C16  41327827.950                       -1357.950          26.800  
C19  25682698.048                        2085.261          37.300  
C20  26767864.004                         714.200          24.700  
C24  25063718.359                        2581.188          43.400  
C26  21794572.741                         189.501          46.000  
C29  24359911.494                       -2270.100          27.900  
E01  24983196.203                       -1770.900          29.300  
E12  22943354.356                        1607.854          45.000    22941224.931                        1199.797          32.700  
E24  26659457.552                        2530.319          41.700  
E26  25899332.276                       -2515.950          21.300  
E31  23546636.913                         789.950          28.900  
G03  23496104.196                        3006.100          31.500  
G07  21606006.583                       -2481.516          42.600  
G08  22786203.150                       -2033.950          28.200  
G14  22011817.046                        2610.544          42.600    22009469.971                        1949.203          34.000  
G17  23284823.962                        1641.958          49.500  
G19  25401500.517                        2520.991          45.800  
G30  21566939.429                        -299.801          53.100    21564594.152                        -223.150          32.400  
J01  37922043.826                         267.850          30.300  
R07  24518519.992                        2389.650          32.600  
R14  24355968.024                        4222.200          28.500  
R23  19889150.038                         535.592          45.200  
R24  22279699.895                        2584.174          45.800  
> 2021  4 10  7  0 16.4441446  0 14
C12  25453968.988                        2141.150          27.600  
C16  41328098.657                       -1359.100          29.000  
C19  25682295.421                        2088.050          28.600  
C24  25063230.591                        2582.550          32.700  
C26  21794538.260                         189.791          37.900  
E12  22943047.063                        1609.050          26.600  
G07  21606473.654                       -2480.548          38.000  
G14  22011307.693                        2611.304          35.700    22008972.610                        1949.972          32.800  
G17  23284516.669                        1642.306          37.700  
G19  25401030.137                        2521.132          37.000  
G22  22533695.751                        1700.350          31.400  
G30  21566996.983                        -299.417          42.600    21564651.107                        -223.124          34.500  
R23  19889053.799                         535.772          39.700  
R24  22279210.628                        2583.900          29.500  
> 2021  4 10  7  0 17.4441446  0 20
C09  39976182.799                       -1719.750          26.400  
C12  25453574.192                        2140.000          27.900  
C13  38206405.690                        1228.800          25.300  
C16  41328352.012                       -1359.300          30.600  
C19  25681892.230                        2086.700          33.500  
C24  25062724.871                        2579.200          28.700  
C26  21794510.709                         186.250          31.400  
E01  24983846.777                       -1769.100          24.600  
E12  22942735.010                        1607.400          33.400    22940613.079                        1200.500          32.200  
E24                                                                                                                                  26656376.309                        1890.650          28.700  
G03  23494940.426                        3004.000          25.500  
G07  21606949.455                       -2481.060          39.700  
G14  22010813.665                        2611.137          35.500    22008475.884                        1949.720          34.800  
G17  23284202.217                        1640.555          33.700  
G19  25400536.709                        2521.429          34.300  
G22  22533381.899                        1694.800          31.500  
G30  21567050.976                        -300.151          39.000    21564710.496                        -224.014          31.800  
J01  37921928.130                         269.300          23.600  
R23  19888947.403                         535.576          40.800  
R24  22278740.284                        2585.850          30.200  
> 2021  4 10  7  0 18.4441447  0 18
C02  37931636.135                          17.450          34.000  
C05  40113159.597                          30.800          30.600  
C12  25453175.593                        2143.550          28.500  
C13  38206202.556                        1225.650          28.500  
C16  41328650.730                       -1353.350          29.700  
C19  25681518.515                        2087.400          33.100  
C24  25062268.412                        2583.650          31.400  
C26  21794496.144                         190.500          32.600  
E12  22942460.225                        1609.300          32.100    22940339.193                        1201.350          30.900  
E24                                                                                                                                  26655925.547                        1891.800          29.800  
G07  21607459.827                       -2479.828          39.300  
G14  22010357.207                        2612.557          36.200    22008008.033                        1950.843          35.100  
G17  23283915.141                        1643.500          31.000  
G19  25400099.437                        2522.994          35.000  
G30  21567142.238                        -298.942          39.100    21564794.863                        -223.487          34.200  
R07  24517216.044                        2388.350          23.100  
R23  19888874.678                         536.634          39.900  
R24  22278271.833                        2587.150          32.100  
> 2021  4 10  7  0 19.4441447  0 18
C09  39976876.459                       -1716.400          25.600  
C12  25452777.283                        2139.200          30.500  
C13  38205969.132                        1225.600          29.200  
C16  41328915.262                       -1353.500          28.500  
C19  25681122.303                        2085.850          32.900  
C24  25061769.972                        2580.750          32.300  
C26  21794462.981                         189.150          33.400  
E12  22942165.943                        1607.400          30.100    22940030.821                        1200.301          31.500  
E24  26657571.821                        2532.150          21.700    26655441.496                        1889.950          27.700  
E31  23546046.286                         792.450          22.100  
G07  21607936.011                       -2481.594          38.800  
G08  22787768.031                       -2027.750          22.200  
G14  22009864.162                        2611.014          35.500    22007511.391                        1949.686          35.500  
G17  23283621.458                        1640.050          28.800  
G19  25399629.776                        2521.325          33.500  
G30  21567195.415                        -300.993          38.700    21564851.938                        -224.670          38.900  
R23  19888759.073                         534.850          38.300  
R24  22277848.041                        2582.800          29.100  
> 2021  4 10  7  0 20.4441447  0 17
C10  36485009.397                         571.800          22.100  
C12  25452376.530                        2148.300          29.200  
C13  38205735.064                        1225.400          30.300  
C16  41329156.964                       -1361.300          30.500  
C19  25680731.443                        2088.250          31.100  
C24  25061287.675                        2578.600          31.000  
C26  21794418.082                         189.920          36.300  
E12  22941850.631                        1607.900          29.900    22939725.103                        1201.490          31.000  
E24                                                                                                                                  26654962.497                        1891.700          28.400  
G07  21608400.460                       -2480.238          39.300  
G14  22009360.581                        2612.666          35.600    22007013.805                        1950.966          34.700  
G17  23283299.851                        1643.742          33.500  
G19  25399154.375                        2520.300          32.000  
G22  22532403.386                        1699.100          23.500  
G30  21567245.850                        -300.558          34.400    21564909.867                        -223.849          37.900  
R14  24351923.858                        4228.350          22.800  
R23  19888666.507                         535.867          38.700  
> 2021  4 10  7  0 21.4441447  0 18
C02  37931614.216                          20.400          33.100  
C05  40113132.583                          33.150          33.600  
C09  39977528.959                       -1721.350          26.000  
C12  25451947.910                        2143.950          31.200  
C13  38205490.216                        1226.800          29.300  
C16  41329439.751                       -1352.150          28.000  
C19  25680324.408                        2084.700          31.800  
C26  21794393.882                         188.200          34.100  
E12  22941551.221                        1608.400          30.700    22939420.596                        1200.872          33.100  
E24                                                                                                                                  26654477.216                        1891.350          28.800  
G03  23492721.754                        3007.500          22.700  
G07  21608873.315                       -2481.097          40.600  
G14  22008859.110                        2611.939          35.400    22006518.031                        1950.528          36.200  
G17  23282980.055                        1643.323          38.100  
G19  25398661.299                        2522.530          35.500  
G30  21567318.483                        -300.606          40.500    21564966.611                        -224.716          38.100  
R23  19888576.352                         535.048          40.300  
R24  22276852.582                        2585.950          29.300  
> 2021  4 10  7  0 22.4441447  0 21
C05  40113130.312                          37.400          36.800  
C09  39977872.350                       -1721.100          29.300  
C12  25451546.616                        2138.350          33.100  
C13  38205271.795                        1226.500          26.800  
C16  41329674.916                       -1356.400          28.800  
C19  25679918.917                        2082.350          31.500  
C24  25060287.179                        2576.500          25.900  
C26  21794354.137                         183.450          33.400  
E12  22941238.965                        1605.000          30.000    22939113.737                        1198.781          34.800  
E24  26656127.402                        2530.150          25.600    26653997.376                        1888.950          28.700  
E31  23545599.875                         790.400          22.100  
G03  23492091.418                        3007.300          26.600  
G07  21609340.520                       -2484.120          40.600  
G14  22008354.988                        2609.268          37.700    22006021.403                        1948.570          35.400  
G17  23282670.198                        1640.514          36.700  
G19  25398178.162                        2520.123          36.000  
G22  22531833.391                        1695.200          26.600  
G30  21567372.573                        -304.158          35.500    21565024.299                        -226.923          39.300  
R07  24515507.022                        2384.300          22.400  
R23  19888478.448                         531.907          41.400  
R24  22276367.047                        2581.471          34.000  
> 2021  4 10  7  0 23.4441447  0 17
C09  39978202.287                       -1723.850          27.100  
C12  25451128.871                        2139.565          35.000  
C13  38205030.628                        1221.250          30.200  
C16  41329938.000                       -1354.550          30.100  
C19  25679542.543                        2083.450          31.400  
C24  25059787.291                        2575.250          31.100  
C26  21794324.024                         185.400          33.300  
E12  22940945.934                        1603.950          30.500    22938808.414                        1197.727          35.200  
E24  26655640.705                        2527.500          27.700    26653513.677                        1887.200          27.800  
G07  21609814.657                       -2485.159          40.200  
G14  22007860.496                        2608.313          37.300    22005525.412                        1947.878          34.200  
G17  23282350.485                        1639.845          33.800  
G19  25397712.750                        2518.971          35.000  
G30  21567438.993                        -305.575          34.200    21565081.725                        -228.119          40.200  
R14  24349530.691                        4227.200          23.100  
R23  19888370.688                         530.681          40.700  
R24  22275877.052                        2579.350          33.400  
> 2021  4 10  7  0 24.4441447  0 19
C02  37931594.239                          12.700          30.500  
C05  40113112.605                          30.250          35.400  
C09  39978519.282                       -1714.150          27.600  
C12  25450723.966                        2144.687          34.800  
C13  38204807.697                        1231.000          27.200  
C16  41330207.328                       -1351.300          30.700  
C19  25679129.544                        2089.400          32.300  
C24  25059299.943                        2584.700          32.100  
C26  21794273.174                         189.800          33.500  
E12  22940628.568                        1609.500          32.100    22938502.440                        1201.831          36.000  
E24  26655170.445                        2531.550          26.600    26653031.725                        1891.500          28.000  
G03  23490970.775                        3011.700          26.300  
G07  21610283.347                       -2480.578          39.200  
G14  22007368.351                        2613.620          37.200    22005027.572                        1951.886          34.100  
G17  23282043.312                        1645.950          30.600  
G19  25397219.106                        2523.977          34.500  
G30  21567483.777                        -300.550          31.900    21565139.999                        -224.587          40.900  
R23  19888286.261                         535.443          41.000  
R24  22275399.597                        2584.650          33.700  
> 2021  4 10  7  0 25.4441447  0 17
C09  39978834.775                       -1712.850          26.600  
C12  25450306.166                        2145.338          34.500  
C13  38204555.383                        1224.650          27.100  
C16  41330460.464                       -1352.800          29.700  
C19  25678729.732                        2089.050          32.700  
C24  25058794.904                        2586.700          32.500  
C26  21794246.604                         189.593          34.700  
E12  22940326.189                        1610.350          32.300    22938197.063                        1201.959          36.300  
E24  26654689.989                        2534.450          27.100  
G07  21610754.133                       -2479.844          39.800  
G14  22006866.010                        2614.343          38.000    22004530.627                        1952.205          33.700  
G17  23281739.734                        1642.150          31.100  
G19  25396745.845                        2525.202          34.800  
G22  22530854.661                        1694.150          23.400  
G30  21567550.442                        -297.500          31.700    21565197.071                        -224.409          41.000  
R23  19888175.149                         535.986          41.100  
R24  22274907.749                        2586.800          33.500  
> 2021  4 10  7  0 26.4441447  0 19
C05  40113098.048                          30.950          36.800  
C12  25449899.069                        2144.650          34.100  
C13  38204321.267                        1228.850          28.800  
C16  41330712.911                       -1353.000          30.400  
C19  25678333.427                        2091.050          32.500  
C24  25058305.664                        2582.200          32.900  
C26  21794209.451                         191.100          34.000  
E12  22940014.726                        1608.900          32.700    22937890.996                        1200.677          36.000  
E24  26654203.447                        2534.700          26.300    26652070.124                        1892.200          29.000  
E31  23545006.099                         790.400          21.900  
G03  23489812.809                        3017.800          24.400  
G07  21611231.723                       -2479.814          39.800  
G14  22006377.370                        2614.508          37.200    22004031.494                        1952.289          35.100  
G17  23281447.157                        1646.400          29.500  
G19  25396260.502                        2525.713          34.100  
G30  21567592.734                        -299.750          31.600    21565253.453                        -224.567          40.200  
R14  24347146.989                        4231.450          23.900  
R23  19888076.839                         535.921          40.300  
R24  22274438.595                        2586.600          32.000  
> 2021  4 10  7  0 27.4441447  0 15
C05  40113090.770                          34.350          37.000  
C12  25449485.272                        2147.584          34.500  
C13  38204089.144                        1227.600          29.300  
C16  41330989.836                       -1347.700          31.700  
C19  25677924.427                        2092.350          32.100  
C24  25057800.130                        2586.800          33.200  
C26  21794176.090                         191.150          32.800  
E12  22939709.454                        1611.800          32.800    22937583.026                        1203.870          32.100  
E24  26653707.207                        2537.450          28.300    26651587.374                        1893.950          28.300  
G07  21611700.815                       -2478.167          39.400  
G14  22005880.530                        2616.594          36.400    22003535.254                        1954.232          33.400  
G19  25395789.745                        2529.250          33.200  
G22  22530160.879                        1702.100          24.400  
G30  21567647.813                        -299.085          33.500    21565310.331                        -223.281          39.200  
R23  19887982.621                         537.566          37.500  
> 2021  4 10  7  0 28.4441447  0 17
C05  40113079.659                          36.400          37.700  
C09  39979842.297                       -1712.000          25.100  
C12  25449069.142                        2147.148          35.400  
C13  38203846.593                        1227.350          30.800  
C16  41331242.242                       -1348.950          31.300  
C19  25677522.387                        2093.150          33.100  
C24  25057308.152                        2585.053          34.300  
C26  21794134.101                         190.382          34.700  
E12  22939405.746                        1611.400          34.200    22937276.620                        1203.455          30.000  
E24  26653241.011                        2537.100          30.200  
G03  23488633.623                        3016.800          24.700  
G07  21612167.274                       -2478.686          40.600  
G14  22005367.267                        2616.243          36.400    22003036.381                        1953.853          34.700  
G19  25395295.968                        2527.554          33.700  
G30  21567706.254                        -299.712          36.000    21565366.973                        -223.937          38.400  
R23  19887876.476                         536.855          37.400  
R24  22273482.455                        2587.550          27.200  
> 2021  4 10  7  0 29.4441448  0 16
C05  40113103.333                          36.750          37.500  
C12  25448691.094                        2144.971          35.600  
C13  38203645.123                        1228.350          30.800  
C16  41331529.134                       -1347.700          30.800  
C19  25677146.738                        2090.850          32.500  
C24  25056832.672                        2582.986          34.300  
C26  21794128.695                         187.835          34.800  
E12  22939126.629                        1608.350          33.900    22936999.302                        1201.677          29.400  
E24  26652787.116                        2533.850          28.900    26650652.593                        1893.700          28.500  
