     3.03           OBSERVATION DATA    M: Mixed            RINEX VERSION / TYPE
Geo++ RINEX Logger  Geo++               20210410 070101 UTC PGM / RUN BY / DATE
************************************************************COMMENT
This file was generated by the Geo++ RINEX Logger App       COMMENT
for Android devices (Version 2.1.6). If you encounter       COMMENT
any issues, please send an email to android@geopp.de        COMMENT
Filtering Mode: MORE                                        COMMENT
************************************************************COMMENT
Geo++                                                       MARKER NAME
GEODETIC                                                    MARKER TYPE
Geo++               Geo++                                   OBSERVER / AGENCY
unknown             samsung             SM-G9750            REC # / TYPE / VERS
unknown             SM-G9750                                ANT # / TYPE
 -2853720.2774  4666599.4277  3269258.2632                  APPROX POSITION XYZ
        0.0000        0.0000        0.0000                  ANTENNA: DELTA H/E/N
G    8 C1C L1C D1C S1C C5Q L5Q D5Q S5Q                      SYS / # / OBS TYPES
R    4 C1C L1C D1C S1C                                      SYS / # / OBS TYPES
E   12 C1B L1B D1B S1B C1C L1C D1C S1C C5Q L5Q D5Q S5Q      SYS / # / OBS TYPES
C    4 C2I L2I D2I S2I                                      SYS / # / OBS TYPES
J    8 C1C L1C D1C S1C C5Q L5Q D5Q S5Q                      SYS / # / OBS TYPES
  2021     4    10     7     1   19.4313560     GPS         TIME OF FIRST OBS
 24 R01  1 R02 -4 R03  5 R04  6 R05  1 R06 -4 R07  5 R08  6 GLONASS SLOT / FRQ #
    R09 -2 R10 -5 R11  0 R12 -1 R13 -2 R14 -7 R15  0 R16 -1 GLONASS SLOT / FRQ #
    R17  4 R18 -3 R19  3 R20  2 R21  4 R22 -3 R23  3 R24  2 GLONASS SLOT / FRQ #
G L1C                                                       SYS / PHASE SHIFT
G L5Q -0.25000                                              SYS / PHASE SHIFT
R L1C                                                       SYS / PHASE SHIFT
E L1B                                                       SYS / PHASE SHIFT
E L1C +0.50000                                              SYS / PHASE SHIFT
E L5Q -0.25000                                              SYS / PHASE SHIFT
C L2I                                                       SYS / PHASE SHIFT
J L1C                                                       SYS / PHASE SHIFT
J L5Q -0.25000                                              SYS / PHASE SHIFT
 C1C    0.000 C1P    0.000 C2C    0.000 C2P    0.000        GLONASS COD/PHS/BIS
                                                            END OF HEADER
> 2021  4 10  7  1 19.4313560  3  1
Geo++                                                       MARKER NAME
> 2021  4 10  7  1 19.4313560  0 17
C09  39996816.873                       -1749.850          29.100  
C12  25428281.860                        2100.100          32.500  
C13  38192021.907                        1185.950          32.200  
C16  41344610.315                       -1385.850          30.900  
C19  25657249.549                        2047.900          32.900  
C26  21792591.096                         121.900          35.700  
E12  22924031.517                        1553.530          34.700    22921908.986                        1160.082          32.900  
E24  26628824.442                        2490.850          29.400    26626697.114                        1860.549          30.800  
G03  23459641.022                        2965.900          24.200    23457300.542                        2215.400          27.900  
G07  21636511.948                       -2541.597          39.300  
G14  21980224.001                        2566.900          33.000    21977881.722                        1916.074          37.200  
G19  25370989.423                        2482.071          33.600  
G22  22513651.916                        1637.300          28.700  
G30  21570972.220                        -373.563          41.700    21568621.847                        -278.964          36.900  
R07  24490230.360                        2335.250          30.300  
R23  19883070.530                         467.868          42.900  
R24  22249061.089                        2524.467          36.100  
> 2021  4 10  7  1 20.4313560  0 18
C12  25427878.123                        2097.500          32.600  
C13  38191802.242                        1181.650          27.700  
C16  41344874.515                       -1380.550          31.600  
C19  25656859.602                        2046.850          28.200  
C26  21792571.393                         123.285          34.300  
E12  22923743.499                        1555.192          37.000    22921613.773                        1161.443          32.000  
E24  26628352.052                        2494.050          29.100    26626227.423                        1861.600          28.300  
E31  23537106.876                         739.050          24.500  
G03                                                                  23456739.114                        2217.350          27.300  
G07  21636994.996                       -2540.124          39.200  
G14  21979742.917                        2568.200          32.700    21977394.043                        1917.506          35.500  
G19  25370504.442                        2487.200          33.100  
G22  22513337.217                        1639.450          28.300  
G30  21571041.855                        -372.393          40.300    21568694.180                        -277.941          35.400  
R07  24489772.660                        2337.400          29.900  
R14  24304537.795                        4189.850          19.400  
R23  19882987.571                         469.290          42.600  
R24  22248605.787                        2525.750          32.900  
> 2021  4 10  7  1 21.4313560  0 18
C05  40112878.555                         -20.850          32.400  
C09  39997471.649                       -1752.600          25.300  
C12  25427474.548                        2099.700          33.400  
C13  38191567.451                        1190.300          28.000  
C16  41345136.480                       -1374.500          30.900  
C19  25656452.130                        2048.300          30.900  
C26  21792548.555                         125.750          31.500  
E12  22923446.950                        1556.182          36.900    22921316.325                        1162.030          32.700  
E24  26627889.118                        2494.800          29.200    26625749.200                        1862.600          28.400  
G03                                                                  23456171.853                        2217.100          27.300  
G07  21637477.309                       -2539.304          39.200  
G14  21979243.709                        2568.691          34.000    21976905.328                        1918.189          35.900  
G19  25370036.112                        2485.373          34.000  
G22  22513053.260                        1639.300          27.600  
G30  21571110.453                        -371.604          39.100    21568763.678                        -277.630          36.700  
R07  24489326.515                        2338.350          31.700  
R23  19882899.677                         470.025          41.800  
R24  22248126.365                        2528.050          33.500  
> 2021  4 10  7  1 22.4313560  0 17
C09  39997816.108                       -1752.750          28.200  
C12  25427061.132                        2099.150          32.800  
C13  38191327.914                        1185.750          29.600  
C16  41345398.796                       -1379.000          31.000  
C19  25656054.303                        2052.850          27.400  
C26  21792517.374                         122.600          33.900  
E12  22923151.952                        1555.125          37.000    22921021.028                        1161.308          33.200  
E24  26627403.752                        2494.050          30.900    26625273.427                        1862.449          30.900  
E31  23536839.705                         737.350          25.900  
G07  21637966.867                       -2540.344          39.500  
G14  21978748.749                        2569.550          32.700    21976415.764                        1917.588          36.800  
G19  25369563.037                        2484.827          33.400  
G22  22512720.788                        1637.100          28.900  
G30  21571179.104                        -372.855          40.300    21568835.026                        -278.544          35.500  
R07  24488906.203                        2335.150          31.800  
R23  19882800.744                         468.919          42.900  
R24  22247654.789                        2525.724          34.900  
> 2021  4 10  7  1 23.4313559  0 18
C12  25426637.033                        2100.250          32.900  
C13  38191092.984                        1179.650          29.000  
C16  41345630.043                       -1381.250          31.400  
C26  21792465.617                         120.586          34.400  
C29  24389711.881                       -2305.050          22.800  
E12  22922823.187                        1553.321          37.800    22920696.759                        1159.591          33.200  
E24  26626899.608                        2492.600          30.400    26624771.382                        1860.793          32.000  
E31  23536680.023                         735.600          26.000  
G03  23457362.433                        2969.250          22.500  
G07  21638417.562                       -2542.519          40.000  
G14  21978237.410                        2568.250          33.200    21975897.530                        1916.102          36.900  
G17  23263785.244                        1597.150          27.100  
G19  25369064.589                        2482.781          33.700  
G22  22512367.440                        1638.300          29.700  
G30  21571216.685                        -375.404          40.100    21568876.205                        -280.271          35.900  
R07  24488470.112                        2332.600          31.500  
R23  19882695.324                         466.593          44.000  
R24  22247158.140                        2523.524          35.900  
> 2021  4 10  7  1 24.4313559  0 19
C05  40112840.387                         -13.200          33.500  
C09  39998475.560                       -1754.000          26.100  
C12  25426231.215                        2094.700          32.400  
C13  38190846.955                        1179.450          31.900  
C16  41345898.458                       -1383.400          31.500  
C19  25655247.470                        2049.650          26.000  
C24  25029811.750                        2528.400          20.600  
C26  21792439.936                         119.290          35.600  
E12  22922527.693                        1552.016          36.200    22920397.667                        1159.025          32.700  
E24  26626421.240                        2490.750          31.800    26624296.012                        1860.482          32.800  
E31  23536522.433                         735.300          25.900  
G07  21638895.233                       -2543.483          39.600  
G14  21977750.948                        2564.650          33.100    21975408.969                        1915.510          38.800  
G19  25368601.511                        2482.251          34.900  
G22  22512050.060                        1634.700          28.900  
G30  21571285.138                        -376.550          40.800    21568946.457                        -281.202          37.000  
R07  24488003.436                        2333.700          32.500  
R23  19882607.585                         465.328          44.000  
R24  22246676.475                        2522.617          34.800  
> 2021  4 10  7  1 25.4313559  0 19
C02  37931374.935                         -56.100          30.100  
C09  39998780.899                       -1749.900          28.600  
C12  25425831.442                        2095.400          32.200  
C13  38190618.664                        1184.850          32.800  
C16  41346170.821                       -1378.300          32.800  
C19  25654862.387                        2050.600          28.200  
C26  21792417.003                         120.457          34.600  
E01  25007000.093                       -1822.200          20.200  
E12  22922236.145                        1553.600          32.900    22920102.822                        1159.911          32.000  
E24  26625952.216                        2492.500          29.900    26623819.193                        1861.577          32.800  
G07  21639378.649                       -2542.284          40.300  
G14  21977260.938                        2566.850          32.600    21974921.358                        1916.695          38.400  
G17  23263140.942                        1600.300          25.100  
G19  25368122.294                        2483.929          35.400  
G22  22511766.008                        1640.000          26.500  
G30  21571359.937                        -375.525          40.600    21569017.659                        -280.589          35.500  
R07  24487575.483                        2332.650          33.500  
R23  19882531.589                         466.691          41.700  
R24  22246172.974                        2520.250          33.300  
> 2021  4 10  7  1 26.4313559  0 15
C12  25425430.028                        2103.200          31.300  
C13  38190396.526                        1190.717          34.300  
C16  41346425.652                       -1374.000          32.400  
C19  25654474.764                        2054.600          28.200  
C26  21792395.126                         124.350          33.300  
E12  22921935.461                        1559.100          33.000    22919808.434                        1164.594          32.300  
E24  26625471.956                        2499.200          29.500    26623345.229                        1866.321          34.000  
E31  23536253.078                         739.100          24.300  
G07  21639872.715                       -2536.729          40.200  
G14  21976760.592                        2572.504          33.500    21974432.704                        1920.934          37.500  
G19  25367654.325                        2489.745          35.600  
G30  21571438.491                        -370.129          42.600    21569089.317                        -276.372          37.400  
R07  24487094.024                        2339.100          32.700  
R23  19882437.462                         472.214          42.000  
R24  22245696.612                        2530.450          32.800  
> 2021  4 10  7  1 27.4313559  0 19
C05  40112839.419                          -6.850          33.300  
C09  39999476.199                       -1741.400          26.600  
C12  25425016.987                        2097.150          31.600  
C13  38190172.954                        1184.233          34.800  
C16  41346696.138                       -1379.650          31.400  
C19  25654066.520                        2046.850          29.800  
C26  21792379.610                         116.850          32.200  
E12  22921633.344                        1553.550          28.600    22919511.713                        1158.959          31.900  
E24  26625004.953                        2493.450          30.100    26622872.529                        1860.801          32.100  
G07  21640351.557                       -2543.555          40.000  
G14  21976280.698                        2567.350          33.100    21973943.816                        1916.133          36.400  
G17  23262576.514                        1599.450          26.700  
G19  25367167.536                        2483.188          37.500  
G21  21480041.137                       -2277.100          19.000  
G30  21571499.422                        -377.217          40.700    21569160.141                        -281.655          36.000  
R07  24486713.661                        2332.850          31.500  
R14  24299007.607                        4194.950          21.000  
R23  19882356.291                         465.109          39.800  
R24  22245250.594                        2525.300          30.500  
> 2021  4 10  7  1 28.4313559  0 16
C12  25424618.070                        2096.950          31.300  
C13  38189945.218                        1183.141          34.300  
C16  41346964.260                       -1382.300          31.600  
C19  25653681.093                        2044.500          29.900  
C26  21792344.941                         117.050          32.900  
E12  22921342.052                        1551.600          29.500    22919215.625                        1158.331          31.300  
E24  26624527.490                        2491.150          29.500    26622396.566                        1860.362          32.800  
E31  23535961.260                         733.950          22.700  
G07  21640836.128                       -2545.000          40.400  
G14  21975809.231                        2564.616          34.100    21973454.661                        1915.257          36.200  
G17  23262275.629                        1599.500          26.000  
G19  25366691.272                        2482.001          37.100  
G30  21571578.674                        -378.837          41.600    21569232.498                        -282.846          36.000  
R07  24486270.975                        2335.850          32.200  
R23  19882264.362                         463.478          41.700  
R24  22244798.614                        2519.950          31.400  
> 2021  4 10  7  1 29.4313559  0 17
C09  40000134.616                       -1753.600          27.300  
C12  25424228.306                        2093.650          31.100  
C13  38189720.040                        1178.500          31.500  
C16  41347234.638                       -1384.600          31.900  
C19  25653300.623                        2043.650          28.200  
C26  21792329.018                         115.318          36.300  
E12  22921049.721                        1549.378          35.400    22918920.295                        1156.725          31.800  
E24  26624041.193                        2490.450          30.800    26621921.360                        1859.108          33.500  
G07  21641322.957                       -2547.013          40.600  
G14  21975302.548                        2562.877          34.400    21972966.265                        1913.882          37.700  
G17  23261954.817                        1591.750          29.500  
G19  25366225.061                        2480.323          36.300  
G30  21571654.487                        -381.063          41.900    21569304.115                        -284.604          35.000  
R07  24485830.845                        2331.050          32.600  
R14  24297497.026                        4189.250          24.900  
R23  19882176.489                         461.204          42.800  
R24  22244330.903                        2517.450          28.400  
> 2021  4 10  7  1 30.4313559  0 21
C02  37931334.245                         -56.400          27.600  
C05  40112839.120                          -2.200          33.900  
C09  40000463.117                       -1754.450          28.900  
C12  25423818.118                        2090.604          34.400  
C13  38189469.641                        1175.050          28.200  
C16  41347499.283                       -1387.250          33.300  
C19  25652914.118                        2040.850          27.000  
C26  21792304.363                         110.979          35.700  
E12  22920756.152                        1545.214          37.800    22918628.225                        1153.711          31.400  
E24  26623580.940                        2484.900          28.900    26621449.415                        1856.114          33.400  
E31  23535694.939                         730.650          25.300  
G07  21641799.855                       -2551.142          39.600  
G14  21974830.003                        2560.700          32.600    21972480.230                        1910.996          36.400  
G17  23261621.975                        1595.950          29.600  
G19  25365754.914                        2475.860          33.400  
G21  21481365.621                       -2289.950          23.800  
G22  22510202.073                        1629.750          26.100  
G30  21571730.863                        -385.617          37.200    21569378.091                        -287.757          35.900  
R07  24485408.366                        2325.250          32.600  
R23  19882080.783                         457.002          41.400  
R24  22243882.342                        2514.400          30.100  
> 2021  4 10  7  1 31.4313558  0 19
C09  40000794.997                       -1747.750          29.200  
C12  25423390.324                        2090.450          31.300  
C13  38189223.222                        1176.050          29.900  
C16  41347733.131                       -1384.950          32.700  
C19  25652479.429                        2038.650          32.000  
C26  21792253.408                         111.512          36.500  
C29  24393227.591                       -2306.300          21.000  
E12  22920432.985                        1545.508          36.200    22918305.058                        1154.191          31.400  
E24                                                                                                                                  26620945.474                        1857.083          31.400  
G07  21642265.442                       -2550.407          40.500  
G14  21974303.577                        2558.700          31.800    21971963.097                        1911.428          36.300  
G17  23261298.209                        1594.600          32.300  
G19  25365258.468                        2477.646          35.700  
G22  22509853.423                        1626.500          26.300  
G30  21571763.849                        -384.904          37.600    21569421.871                        -287.716          36.100  
R07  24484926.909                        2325.500          32.700  
R14  24295843.908                        4180.250          26.800  
R23  19881971.668                         457.701          41.700  
R24  22243347.821                        2515.200          31.700  
> 2021  4 10  7  1 32.4313558  0 18
C09  40001126.458                       -1745.450          29.900  
C12  25422974.702                        2095.000          31.100  
C13  38188997.668                        1185.700          30.400  
C16  41347998.338                       -1381.400          33.100  
C19  25652082.994                        2046.636          35.900  
C26  21792232.612                         117.354          36.100  
E12  22920137.880                        1551.502          36.600    22918005.756                        1158.750          28.900  
E24  26622594.522                        2492.700          26.500    26620472.891                        1861.988          31.600  
E31  23535368.964                         731.000          24.400  
G07  21642745.001                       -2544.567          40.800  
G14  21973804.613                        2563.300          32.900    21971473.726                        1916.152          36.200  
G17  23260999.506                        1600.869          33.500  
G19  25364784.386                        2484.900          33.000  
G22  22509562.515                        1639.450          29.300  
G30  21571837.789                        -379.367          39.900    21569494.911                        -283.336          37.900  
R07  24484534.970                        2331.950          31.900  
R23  19881881.321                         463.543          40.700  
R24  22242862.948                        2521.945          34.700  
