     3.03           OBSERVATION DATA    M: Mixed            RINEX VERSION / TYPE
Geo++ RINEX Logger  Geo++               20210410 065929 UTC PGM / RUN BY / DATE
************************************************************COMMENT
This file was generated by the Geo++ RINEX Logger App       COMMENT
for Android devices (Version 2.1.6). If you encounter       COMMENT
any issues, please send an email to android@geopp.de        COMMENT
Filtering Mode: MORE                                        COMMENT
************************************************************COMMENT
Geo++                                                       MARKER NAME
GEODETIC                                                    MARKER TYPE
Geo++               Geo++                                   OBSERVER / AGENCY
unknown             samsung             SM-G9750            REC # / TYPE / VERS
unknown             SM-G9750                                ANT # / TYPE
 -2853721.7581  4666596.2644  3269256.6106                  APPROX POSITION XYZ
        0.0000        0.0000        0.0000                  ANTENNA: DELTA H/E/N
G    8 C1C L1C D1C S1C C5Q L5Q D5Q S5Q                      SYS / # / OBS TYPES
R    4 C1C L1C D1C S1C                                      SYS / # / OBS TYPES
E   12 C1B L1B D1B S1B C1C L1C D1C S1C C5Q L5Q D5Q S5Q      SYS / # / OBS TYPES
C    4 C2I L2I D2I S2I                                      SYS / # / OBS TYPES
J    8 C1C L1C D1C S1C C5Q L5Q D5Q S5Q                      SYS / # / OBS TYPES
  2021     4    10     6    59   47.4441446     GPS         TIME OF FIRST OBS
 24 R01  1 R02 -4 R03  5 R04  6 R05  1 R06 -4 R07  5 R08  6 GLONASS SLOT / FRQ #
    R09 -2 R10 -5 R11  0 R12 -1 R13 -2 R14 -7 R15  0 R16 -1 GLONASS SLOT / FRQ #
    R17  4 R18 -3 R19  3 R20  2 R21  4 R22 -3 R23  3 R24  2 GLONASS SLOT / FRQ #
G L1C                                                       SYS / PHASE SHIFT
G L5Q -0.25000                                              SYS / PHASE SHIFT
R L1C                                                       SYS / PHASE SHIFT
E L1B                                                       SYS / PHASE SHIFT
E L1C +0.50000                                              SYS / PHASE SHIFT
E L5Q -0.25000                                              SYS / PHASE SHIFT
C L2I                                                       SYS / PHASE SHIFT
J L1C                                                       SYS / PHASE SHIFT
J L5Q -0.25000                                              SYS / PHASE SHIFT
 C1C    0.000 C1P    0.000 C2C    0.000 C2P    0.000        GLONASS COD/PHS/BIS
                                                            END OF HEADER
> 2021  4 10  6 59 47.4441446  2  0
> 2021  4 10  6 59 47.4441446  0 35
C02  37931756.686                          17.324          43.400  
C03  37062374.147                          24.800          34.000  
C04  37918474.681                          12.350          31.300  
C05  40113291.840                           6.900          41.800  
C09  39966215.160                       -1739.464          36.700  
C10  36488552.495                         548.500          30.900  
C12  25465892.524                        2132.615          40.400  
C13  38213453.071                        1211.600          32.700  
C16  41320499.708                       -1375.500          30.700  
C20  26771717.720                         709.350          31.100  
C24  25077583.944                        2575.554          38.800  
C26  21795601.514                         190.940          45.900  
C29  24347659.161                       -2285.775          35.300  
E01  24973748.428                       -1777.250          33.600  
E12  22951913.615                        1602.148          41.600    22949782.990                        1196.287          31.600  
E24  26672924.413                        2517.487          41.800    26670793.488                        1879.951          32.700  
E26  25885952.423                       -2528.400          25.500  
E31  23550876.162                         785.963          36.300  
E33  23580559.513                        -889.050          30.400  
G01  19734611.707                        -326.717          34.800  
G03  23512166.960                        2996.200          29.500  
G07  21592788.918                       -2483.341          45.600  
G08  22775376.929                       -2046.850          29.000    22773002.273                       -1527.700          28.700  
G14  22025694.324                        2601.368          39.500    22023357.741                        1942.575          29.800  
G17  23293544.509                        1630.969          48.100  
G19  25414912.817                        2508.679          46.600  
G21  21437327.042                       -2233.400          24.600  
G22  22543094.435                        1695.748          40.300  
G30  21565363.904                        -296.005          50.900    21563013.831                        -220.100          30.700  
J01  37923442.841                         249.169          35.800  
J02  37087195.463                         660.050          32.000  
R07  24531045.205                        2380.000          31.100  
R14  24378008.351                        4206.600          26.900  
R23  19891962.575                         536.175          49.400  
R24  22293238.407                        2580.876          46.800  
> 2021  4 10  6 59 48.4441446  0 31
C02  37931753.745                          18.669          45.400  
C05  40113288.000                           9.250          41.900  
C09  39966546.487                       -1738.184          35.600  
C10  36488448.824                         557.350          29.900  
C12  25465483.664                        2133.394          40.400  
C13  38213213.594                        1214.607          36.700  
C16  41320767.779                       -1375.900          32.300  
C19  25693515.101                        2070.700          26.500  
C20  26771584.969                         706.950          30.100  
C24  25077094.740                        2576.228          40.300  
C26  21795566.195                         191.360          46.900  
C29  24348095.416                       -2284.893          38.100  
E01  24974106.437                       -1776.041          36.000  
E12  22951605.485                        1603.030          42.900    22949478.758                        1196.954          32.500  
E24  26672443.903                        2518.692          42.000    26670312.078                        1880.602          34.000  
E31  23550723.325                         786.695          36.600  
G01  19734697.205                        -326.350          33.100  
G03  23511589.317                        2997.600          32.200  
G07  21593263.246                       -2482.615          45.400  
G08  22775718.749                       -2049.600          26.900    22773398.356                       -1527.250          27.000  
G14  22025212.614                        2602.061          43.300    22022863.140                        1943.027          34.100  
G17  23293236.679                        1631.887          49.700  
G19  25414437.702                        2509.433          45.300  
G22  22542782.108                        1696.654          41.100  
G30  21565414.925                        -295.541          51.300    21563070.848                        -220.852          30.200  
J01  37923376.044                         250.422          37.400  
R07  24530563.795                        2379.800          28.400  
R13  20016203.222                        2256.650          23.200  
R14  24377216.356                        4208.900          28.400  
R23  19891863.101                         536.629          49.500  
R24  22292743.806                        2581.607          46.200  
> 2021  4 10  6 59 49.4441446  0 30
C02  37931748.001                          21.532          45.800  
C05  40113282.556                          11.350          42.000  
C09  39966881.607                       -1735.411          36.200  
C10  36488346.847                         557.100          32.500  
C12  25465070.802                        2136.107          39.900  
C13  38212984.505                        1217.552          38.400  
C16  41321018.358                       -1372.050          32.800  
C20  26771436.224                         722.200          28.300  
C24  25076603.332                        2578.747          40.700  
C26  21795531.371                         193.669          47.200  
C29  24348536.962                       -2282.229          38.500  
E01  24974440.958                       -1773.365          34.700  
E12  22951301.448                        1605.785          45.100    22949172.622                        1198.718          33.800  
E24  26671963.587                        2521.386          42.300    26669834.461                        1882.646          35.500  
E31  23550579.377                         789.390          38.000  
G03  23511011.869                        3000.500          32.500  
G07  21593740.168                       -2480.162          45.300  
G08                                                                  22773778.445                       -1524.800          27.000  
G14  22024711.313                        2604.832          43.500    22022368.735                        1944.905          34.600  
G17  23292928.145                        1634.597          50.100  
G19  25413964.882                        2512.365          44.000  
G22  22542456.186                        1699.050          41.000  
G30  21565472.737                        -293.305          51.900    21563122.964                        -219.287          30.900  
J01  37923329.529                         253.422          36.900  
R07  24530157.829                        2382.800          26.600  
R12  19501857.349                       -1830.100          23.300  
R13  20015699.223                        2257.650          27.400  
R14  24376427.254                        4216.300          30.500  
R23  19891764.122                         539.099          50.000  
R24  22292262.891                        2584.091          45.700  
> 2021  4 10  6 59 50.4441446  0 32
C02  37931742.219                          22.578          46.500  
C03  37062343.492                           8.350          30.800  
C04  37918493.191                         -13.650          30.700  
C05  40113278.873                          24.210          43.100  
C09  39967213.992                       -1736.700          33.100  
C10  36488244.532                         556.591          34.400  
C12  25464664.498                        2137.420          40.500  
C13  38212749.982                        1218.660          38.800  
C16  41321288.086                       -1369.900          33.300  
C20  26771313.224                         714.200          27.400  
C24  25076108.889                        2579.559          41.400  
C26  21795490.214                         194.426          46.500  
C29  24348976.073                       -2280.847          39.000  
E01  24974777.539                       -1773.074          35.200  
E12  22950996.474                        1606.279          46.600    22948870.046                        1199.346          32.800  
E24  26671483.834                        2522.407          42.600    26669355.907                        1883.466          35.100  
E26  25887380.557                       -2525.200          26.600  
E31  23550436.590                         789.800          32.900  
E33  23581050.197                        -884.150          23.400  
G03  23510446.974                        2999.800          32.300  
G07  21594211.357                       -2479.250          47.600  
G08  22776529.555                       -2039.650          26.900    22774172.886                       -1522.800          27.600  
G14  22024214.472                        2605.927          44.800    22021873.692                        1945.719          32.800  
G17  23292614.776                        1635.828          49.300  
G19  25413483.030                        2513.669          45.100  
G22  22542139.819                        1699.896          42.100  
G30  21565530.812                        -292.610          52.900    21563177.741                        -218.777          30.000  
J01  37923287.472                         254.813          38.900  
R07  24529736.835                        2385.300          31.000  
R14  24375631.819                        4216.500          30.900  
R23  19891660.308                         539.843          49.400  
R24  22291784.936                        2585.076          45.900  
> 2021  4 10  6 59 51.4441446  0 29
C02  37931738.326                          19.847          46.500  
C05  40113274.980                          21.541          43.800  
C09  39967540.470                       -1737.050          34.100  
C10  36488130.015                         558.250          32.500  
C12  25464253.186                        2134.429          42.400  
C13  38212513.150                        1215.957          39.500  
C16  41321556.104                       -1373.700          33.000  
C24  25075612.437                        2576.606          41.600  
C26  21795456.941                         191.194          47.500  
C29  24349414.073                       -2283.531          38.900  
E01  24975119.607                       -1775.350          36.100  
E12  22950691.289                        1603.710          46.300    22948563.062                        1197.093          31.000  
E24  26671001.772                        2519.644          41.800    26668874.444                        1881.251          36.100  
E31  23550278.004                         787.215          36.000    23548099.112                         586.100          28.000  
E33  23581214.787                        -886.750          24.700  
G03  23509865.381                        2997.342          33.800  
G07  21594680.536                       -2482.415          47.500  
G08  22776919.289                       -2043.200          30.600    22774559.323                       -1524.750          28.300  
G14  22023719.219                        2603.121          45.000    22021376.940                        1943.421          32.700  
G17  23292304.195                        1632.912          49.000  
G19  25413003.066                        2510.857          45.500  
G21  21438944.949                       -2232.400          23.500  
G22  22541817.846                        1696.809          40.900  
G30  21565586.877                        -295.976          52.700    21563236.204                        -222.650          28.700  
J01  37923239.809                         252.179          38.800  
R07  24529192.416                        2383.950          29.500  
R14  24374841.570                        4213.850          30.200  
R23  19891559.282                         536.605          49.800  
R24  22291306.172                        2581.907          46.400  
> 2021  4 10  6 59 52.4441446  0 32
C02  37931737.625                          22.641          47.300  
C05  40113270.981                          23.916          43.600  
C09  39967875.536                       -1732.600          34.000  
C10  36488029.783                         555.950          30.800  
C12  25463841.770                        2136.711          41.700  
C13  38212284.607                        1218.275          39.700  
C16  41321814.724                       -1370.600          33.100  
C20  26771023.527                         713.250          26.100  
C24  25075118.278                        2579.125          41.400  
C26  21795418.766                         193.163          47.600  
C29  24349844.774                       -2280.951          38.200  
E01  24975456.472                       -1773.488          37.400  
E12  22950385.100                        1605.692          46.400    22948257.473                        1199.189          33.000  
E24  26670522.003                        2522.220          41.500    26668394.975                        1883.651          35.700  
E26  25888329.603                       -2525.950          24.500  
E31  23550119.312                         789.539          35.500    23547951.513                         589.600          28.000  
G03  23509304.668                        3001.650          33.200  
G07  21595151.109                       -2480.352          47.200  
G08  22777317.912                       -2042.300          31.000    22774949.551                       -1524.350          28.400  
G14  22023223.860                        2605.434          44.700    22020882.181                        1945.706          33.100  
G17  23291996.507                        1635.440          50.100  
G19  25412525.096                        2513.233          45.600  
G21  21439393.338                       -2233.300          26.300  
G22  22541496.068                        1698.903          41.300  
G30  21565641.638                        -294.074          52.500    21563292.164                        -219.475          29.500  
J01  37923184.846                         254.650          38.400  
R07  24528790.293                        2385.050          29.000  
R12  19502910.337                       -1830.400          25.100  
R13  20014504.368                        2257.750          24.100  
R14  24374051.516                        4216.150          31.000  
R23  19891459.050                         538.583          49.700  
R24  22290818.908                        2584.106          45.800  
> 2021  4 10  6 59 53.4441446  0 33
C02  37931731.709                          22.987          47.100  
C03  37062328.184                          -0.750          33.300  
C04  37918476.685                         -10.600          32.200  
C05  40113262.966                          24.407          43.300  
C09  39968211.083                       -1736.200          33.600  
C10  36487916.841                         557.000          32.100  
C12  25463432.633                        2136.856          42.100  
C13  38212052.946                        1218.371          39.300  
C16  41322069.926                       -1371.550          32.000  
C20  26770903.689                         710.550          27.300  
C24  25074623.400                        2578.922          41.700  
C26  21795383.470                         193.015          47.800  
C29  24350288.846                       -2280.727          38.400  
E01  24975794.418                       -1773.181          36.400  
E12  22950079.691                        1605.976          46.800    22947950.864                        1198.849          33.300  
E24  26670043.313                        2522.547          41.900    26667914.187                        1883.537          35.300  
E26  25888809.650                       -2524.450          29.100  
E31  23549976.391                         789.626          35.500    23547799.898                         588.450          27.700  
G03  23508715.355                        3000.390          33.400  
G07  21595621.263                       -2480.423          46.800  
G08  22777707.721                       -2040.673          34.600  
G14  22022729.882                        2605.605          45.000    22020386.404                        1945.554          34.100  
G17  23291682.404                        1635.581          49.400  
G19  25412045.207                        2513.460          45.500  
G21  21439832.313                       -2231.050          25.400  
G22  22541173.570                        1698.722          40.400  
G30  21565698.977                        -294.372          52.800    21563346.506                        -220.033          30.800  
J01  37923148.351                         254.969          38.500  
R07  24528376.958                        2380.850          29.400  
R12  19503281.260                       -1831.850          29.300  
R14  24373249.051                        4218.500          31.400  
R23  19891359.598                         538.433          49.100  
R24  22290339.020                        2584.050          46.000  
> 2021  4 10  6 59 54.4441446  0 29
C02  37931727.153                          22.967          46.100  
C05  40113261.409                          24.599          43.700  
C09  39968541.096                       -1732.000          33.700  
C10  36487801.063                         558.150          30.900  
C12  25463022.158                        2136.985          42.500  
C13  38211819.649                        1218.556          39.500  
C16  41322338.782                       -1368.550          32.400  
C24  25074126.285                        2578.914          41.900  
C26  21795345.338                         192.741          46.100  
C29  24350725.885                       -2280.276          39.700  
E01  24976126.529                       -1772.868          36.500  
E12  22949773.544                        1605.843          46.000    22947646.516                        1199.190          33.200  
E24  26669562.987                        2522.775          41.300    26667433.262                        1883.920          35.500  
E31  23549830.933                         789.465          35.100  
E33  23581753.134                        -883.750          25.500  
G03  23508181.066                        3001.150          31.400  
G07  21596096.975                       -2480.568          45.900  
G08  22778073.709                       -2040.700          32.300    22775725.435                       -1524.100          27.200  
G14  22022241.161                        2605.761          45.200    22019889.589                        1945.748          34.000  
G17  23291369.962                        1635.755          49.200  
G19  25411558.586                        2513.739          44.700  
G21  21440231.278                       -2233.350          29.900  
G22  22540840.442                        1698.629          38.000  
G30  21565750.483                        -294.719          52.700  
J01  37923095.229                         255.385          38.100  
R07  24527913.420                        2385.200          28.400  
R14  24372499.811                        4216.000          32.400  
R23  19891254.912                         538.231          48.700  
R24  22289853.297                        2583.938          46.800  
> 2021  4 10  6 59 55.4441446  0 33
C02  37931724.335                          22.013          45.800  
C05  40113257.991                          23.599          43.300  
C07  35943514.244                         321.000          28.300  
C09  39968883.939                       -1733.500          33.300  
C10  36487700.512                         564.300          28.800  
C12  25462613.721                        2135.774          42.100  
C13  38211584.792                        1217.332          39.900  
C16  41322612.972                       -1372.100          32.300  
C24  25073631.807                        2577.553          42.000  
C26  21795306.545                         191.056          46.200  
C29  24351158.065                       -2281.444          38.500  
E01  24976465.774                       -1774.695          37.700  
E12  22949469.434                        1604.374          45.600    22947340.608                        1197.947          32.900  
E24  26669082.899                        2521.651          41.300    26666954.673                        1882.822          35.300  
E26  25889783.797                       -2524.250          25.500  
E31  23549659.331                         788.000          34.200  
E33  23581923.895                        -883.700          24.800  
G03  23507584.060                        2997.950          32.000  
G07  21596567.529                       -2482.121          45.600  
G08  22778478.609                       -2041.358          34.100  
G14  22021746.384                        2604.378          45.100    22019393.013                        1944.782          32.600  
G17  23291060.756                        1634.512          49.200  
G19  25411084.494                        2512.500          45.200  
G21  21440719.520                       -2238.500          29.800  
G30  21565809.722                        -296.458          52.500  
J01  37923048.042                         254.240          37.600  
R07  24527539.159                        2380.400          27.500  
R12  19503925.335                       -1824.800          25.300  
R13  20013216.960                        2256.750          23.100  
R14  24371707.339                        4217.450          31.400  
R22  21469424.348                       -3074.350          19.200  
R23  19891159.458                         536.509          48.100  
R24  22289372.010                        2582.337          46.600  
> 2021  4 10  6 59 56.4441446  0 29
C02  37931717.491                          19.897          45.000  
C03  37062297.478                           5.900          32.900  
C04  37918470.262                         -43.350          29.200  
C05  40113252.346                          21.587          42.900  
C09  39969218.259                       -1736.800          33.800  
C10  36487594.137                         555.450          30.800  
C12  25462198.860                        2133.772          41.200  
C13  38211348.607                        1215.448          38.300  
C16  41322864.249                       -1374.250          31.400  
C24  25073136.302                        2575.154          41.100  
C26  21795273.019                         188.712          46.500  
C29  24351609.904                       -2283.371          37.500  
E01  24976806.090                       -1777.354          34.700  
E12  22949163.098                        1601.871          44.300    22947035.471                        1196.018          31.400  
E24  26668599.985                        2519.282          40.300    26666474.457                        1881.205          33.200  
E31  23549507.088                         785.550          33.400  
G03  23507011.208                        2998.250          32.000  
G07  21597038.554                       -2484.369          44.700  
G08  22778839.011                       -2045.750          31.900  
G14  22021250.578                        2602.295          44.700    22018898.407                        1942.908          32.100  
G17  23290747.824                        1632.473          49.000  
G19  25410604.578                        2510.710          44.300  
G21  21441155.770                       -2234.100          30.200  
G30  21565866.135                        -298.946          51.900  
J01  37923002.525                         252.611          36.300  
R07  24527016.073                        2375.100          27.200  
R14  24370924.633                        4216.050          31.000  
R23  19891051.884                         534.143          48.900  
R24  22288886.698                        2580.020          47.200  
> 2021  4 10  6 59 57.4441446  0 29
C02  37931717.496                          20.654          44.700  
C05  40113248.154                          22.106          43.300  
C09  39969548.935                       -1735.700          34.200  
C10  36487489.814                         556.350          32.300  
C12  25461795.644                        2134.119          41.100  
C13  38211118.071                        1216.071          37.800  
C16  41323130.470                       -1372.100          31.800  
C19  25689943.700                        2075.650          28.400  
C24  25072645.547                        2575.806          41.800  
C26  21795237.049                         188.741          46.500  
C29  24352037.713                       -2282.578          37.000  
E01  24977144.261                       -1777.008          34.300  
E12  22948858.214                        1602.182          44.200    22946730.887                        1196.957          30.500  
E24  26668121.522                        2519.975          40.800    26665995.393                        1882.083          32.900  
E31  23549363.193                         785.450          34.200  
G01  19735252.747                        -329.100          33.100  
G03  23506438.609                        2998.400          33.300  
G07  21597512.231                       -2484.176          44.800  
G08  22779245.534                       -2043.700          30.500  
G14  22020751.429                        2602.839          44.500    22018404.654                        1943.766          32.300  
G17  23290440.541                        1633.005          49.200  
G19  25410127.313                        2511.076          44.000  
G21  21441567.090                       -2235.350          29.300  
G30  21565925.199                        -298.996          51.900  
J01  37922955.462                         253.220          36.000  
R07  24526581.079                        2381.100          28.800  
R14  24370134.085                        4210.800          32.700  
R23  19890955.356                         534.216          48.800  
R24  22288405.536                        2580.366          46.700  
> 2021  4 10  6 59 58.4441446  0 29
C02  37931709.605                          20.478          46.100  
C05  40113245.060                          13.850          43.200  
C09  39969887.005                       -1735.545          35.000  
C10  36487391.686                         553.850          33.500  
C12  25461381.534                        2133.544          42.200  
C13  38210884.137                        1215.406          38.700  
C16  41323396.889                       -1372.300          32.500  
C19  25689537.984                        2073.650          29.100  
C24  25072150.493                        2575.043          42.100  
C26  21795199.479                         187.783          47.100  
C29  24352480.110                       -2283.012          38.700  
E01  24977482.930                       -1777.149          36.100  
E12  22948552.030                        1601.961          44.500    22946425.901                        1196.199          31.700  
E24  26667642.956                        2519.967          40.500    26665516.229                        1881.609          33.500  
E26  25891262.633                       -2526.850          23.000  
E31  23549214.699                         785.100          33.600  
G03  23505860.513                        2997.443          34.900  
G07  21597989.105                       -2485.012          45.300  
G08  22779612.084                       -2036.050          30.000  
G14  22020256.075                        2602.244          45.400    22017909.600                        1943.340          33.700  
G17  23290130.160                        1632.444          51.000  
G19  25409643.651                        2510.606          44.800  
G21  21442014.584                       -2235.700          30.400  
G30  21565983.562                        -300.051          52.300  
J01  37922905.600                         252.709          36.000  
R07  24526132.493                        2379.750          29.100  
R14  24369360.225                        4213.649          34.500  
R23  19890858.427                         533.241          49.300  
R24  22287921.275                        2579.492          46.000  
> 2021  4 10  6 59 59.4441446  0 31
C02  37931707.259                          19.773          46.000  
C04  37918486.711                         -35.850          31.300  
C05  40113236.717                          21.404          43.300  
C09  39970225.822                       -1735.978          35.100  
C10  36487285.011                         553.950          32.700  
C12  25460969.671                        2132.923          42.100  
C13  38210647.352                        1214.916          39.100  
C16  41323650.865                       -1374.600          31.900  
C19  25689133.316                        2075.000          29.300  
C24  25071659.185                        2574.314          42.300  
C26  21795164.755                         186.808          47.900  
C29  24352915.161                       -2283.737          38.700  
E01  24977825.644                       -1777.991          36.100  
E12  22948248.391                        1600.893          45.300    22946120.465                        1195.338          33.600  
E24  26667163.340                        2519.127          40.600    26665034.514                        1881.149          34.200  
E31  23549066.354                         784.300          33.900  
E33  23582615.228                        -889.500          24.500  
G03  23505275.969                        2996.917          36.700  
G07  21598453.535                       -2485.981          45.100  
G08  22779987.776                       -2043.350          30.300  
G14  22019761.769                        2601.615          45.300    22017413.795                        1942.662          34.800  
G17  23289821.125                        1631.826          51.300  
G19  25409167.932                        2510.138          44.700  
G21  21442422.053                       -2235.700          29.700  
G30  21566039.675                        -301.139          52.500  
J01  37922862.482                         252.443          36.200  
R07  24525700.544                        2382.850          28.700  
R13  20011441.001                        2253.300          22.500  
R14  24368560.430                        4212.977          34.900  
R23  19890754.450                         532.274          49.700  
R24  22287437.461                        2578.578          47.000  
